Name;Organisation;Country;Pays;URL;Description;Location;Latitude;Longitude
Mosman Council Datastore;Mosman Municipal Council;Australia;Australie;http://data.mosman.nsw.gov.au/;This DATAstore is both catalogue and repository for public, machine-readable information published by Mosman Council (New South Wales, Australia) for the purposes of building web services with our community.;-32.0142097473, 115.766132355;-32.01420975;115.7661324
Commonwealth Scientific And Industrial Research Organisation;Australia;Australia;Australie;http://data.csiro.au/;;-35.3075, 149.1244;-35.3075;149.1244
South Australia Open Data;Australia;Australia;Australie;http://data.sa.gov.au/;;-34.92889, 138.60083;-34.92889;138.60083
Servicio Meteorológico Nacional;Argentina;Argentina;Argentine;http://smn.gov.ar/;;-34.6, -58.3833;-34.6;-58.3833
Victoria Open Data;Australia;Australia;Australie;http://data.vic.gov.au/;;-37.81361, 144.96306;-37.81361;144.96306
Misiones Open Data;Argentina;Argentina;Argentine;http://datos.misiones.gov.ar/;;-34.6, -58.3833;-34.6;-58.3833
Geological Society Of Albania;Albania;Albania;Albanie;http://gsa-al.org;;41.0, 20.0;41.0;20.0
Novo Hamburgo, Rio Grande Do Sul, Brazil;Prefeitura Municipal De Novo Hamburgo;Brazil;Brésil;http://dados.novohamburgo.rs.gov.br;Open Data portal of the Municipal Administration of the city of Novo Hamburgo, in the state of Rio Grande do Sul, in Brazil. Has official municipal datasets on budgets, income, spending, births and deaths, and more. Uses CKAN.;-29.67833333, -51.13055556;-29.67833333;-51.13055556
African Development Bank Group Open Data;Botswana;Botswana;Botswana;http://botswana.opendataforafrica.org/;;-24.6583, 25.9083;-24.6583;25.9083
Instituto Brasileiro De Geografia E Estatística (ibge);Brazil;Brazil;Brésil;http://ibge.gov.br;;-15.7833, -47.8667;-15.7833;-47.8667
Ministry Of Education;Bolivia, Plurinational State Of;Bolivia;Bolivie;http://www.minedu.gob.bo/;;-16.712, -64.666;-16.712;-64.666
Belgium Roots - Place Names;Belgium;Belgium;Belgique;http://belgium.rootsweb.ancestry.com/bel/_places;;51.05, 3.7333;51.05;3.7333
Department Of Hydrometeorology;Belarus;Belarus;Biélorussie;http://pogoda.by/;;53.9167, 27.55;53.9167;27.55
Geobolivia;Bolivia, Plurinational State Of;Bolivia;Bolivie;http://geo.gob.bo;;-16.5, -68.15;-16.5;-68.15
Nationaal Geografisch Institut;Belgium;Belgium;Belgique;http://ngi.be;;50.85, 4.35;50.85;4.35
Datos Rio;Brazil;Brazil;Brésil;http://data.rio.rj.gov.br;;-22.9083, -43.1964;-22.9083;-43.1964
Statistik Austria;Austria;Austria;Autriche;http://statistik.at;;48.2, 16.35;48.2;16.35
Datacatalogs.org;Open Knowledge Foundation Deutschland E.v.;Cameroon;Cameroun;http://datacatalogs.org/;DataCatalogs.org aims to be the most comprehensive list of open data catalogs in the world. It is curated by a group of open data experts from around the world.;2.5076682, 13.2850542;2.5076682;13.2850542
Burlington, Ontario;City Of Burlington;Canada;Canada;http://cms.burlington.ca/page7429.aspx;You may send [feedback](mailto:its@burlington.ca). Adapted the [Vancouver license](http://cms.burlington.ca/AssetFactory.aspx?did=18762).;43.386208342, -79.83713012;43.38620834;-79.83713012
African Development Bank Group Open Data;Cabo Verde;Cabo Verde;Cap-Vert;http://capeverde.opendataforafrica.org/;;15.1111, -23.6167;15.1111;-23.6167
African Development Bank Group Open Data;Cameroon;Cameroon;Cameroun;http://cameroon.opendataforafrica.org/;;3.8667, 11.5167;3.8667;11.5167
District Of West Kelowna, Bc;Canada;Canada;Canada;http://districtofwestkelowna.ca/index.aspx?page=240;;49.8625, -119.5833;49.8625;-119.5833
Instituto Nacional De Meteorologia E Geophísica;Cabo Verde;Cabo Verde;Cap-Vert;http://meteo.cv/;;15.1111, -23.6167;15.1111;-23.6167
African Development Bank Group Open Data;Burundi;Burundi;Burundi;http://burundi.opendataforafrica.org/;;-3.5, 30.0;-3.5;30.0
Kingston, On - Data Catalogue;Canada;Canada;Canada;http://cityofkingston.ca/explore/data-catalogue;;44.2333, -76.5;44.2333;-76.5
Inststituto Nacional De Estatistica;Cabo Verde;Cabo Verde;Cap-Vert;http://ine.cv;;15.1111, -23.6167;15.1111;-23.6167
New Brunswick Geonb;Canada;Canada;Canada;http://b.ca/geonb1/e/dc/catalogue-e.asp;;46.0, -66.0;46.0;-66.0
Mississauga, On Open Data;Canada;Canada;Canada;http://mississauga.ca/portal/residents/publicationsopendatacatalogue;;43.6, -79.65;43.6;-79.65
Manitoba Geographical Names Program;Canada;Canada;Canada;http://gov.mb.ca/conservation/lands_branch/geo_names/;;55.0, -97.0;55.0;-97.0
Langley, Bc Open Data;Canada;Canada;Canada;http://tol.ca/services-contact/open-data;;49.1041, -122.6576;49.1041;-122.6576
Ontario Mines And Minerals;Canada;Canada;Canada;http://mndm.gov.on.ca/en/mines-and-minerals;;50.0, -85.0;50.0;-85.0
Meteorological Service Of Canada;Canada;Canada;Canada;http://ec.gc.ca/meteo-weather;;45.4, -75.6667;45.4;-75.6667
Sherbrooke, Qc Open Data;Canada;Canada;Canada;http://donnees.ville.sherbrooke.qc.ca/;;45.4, -71.9;45.4;-71.9
Halifax, Ns Open Data;Canada;Canada;Canada;http://halifax.ca/opendata/;;44.67, -63.61;44.67;-63.61
Oakville, On Open Data;Canada;Canada;Canada;http://oakville.ca/data/;;43.45, -79.6833;43.45;-79.6833
Yukon Geological Survey;Canada;Canada;Canada;http://geology.gov.yk.ca;;64.0, -135.0;64.0;-135.0
Natural Resources Canada;Canada;Canada;Canada;http://nrcan.gc.ca;;45.4, -75.6667;45.4;-75.6667
Datos.gob.cl;Gobierno De Chile (chile Government);Chile;Chili;http://www.data.gov.cl/;"Official Chile government open data site.

From the beta welcome message:

Welcome to datos.gob

This beta version of the site has been developed as part of our Open Government policies designed to promote a more transparent and participatory state.

Currently the site contains a limited set of datasets available under Creative Commons. We are working on the publication of progressively more data in open formats, so your comments and suggestions are vital to help us improve this platform and bring it to more users.";-33.3587068216, -69.7702217102;-33.35870682;-69.77022171
Linked Clean Energy Data - Data.reegle.info;Reeep - Renewable Energy And Energy Efficiency Partnership - Www.reeep.org;Austria;Autriche;http://data.reegle.info/;"Clean Energy Datasets - free for re-use

Include clean energy datasets including actors, project outcome documents, country policy reports and more than 3000 clean energy terms from our thesaurus into your website or application by using reegle's Linked Open Data facilities. Datasets are published  using the Open Government Data License for public sector information and are therefore free for re-use.";48.2208286, 16.2399771;48.2208286;16.2399771
Chile's Transparency Board Opendata;El Consejo para la Transparencia;Chile;Chili;http://www.consejotransparencia.cl/consejo/site/edic/base/port/pcatalogo.html;OpenData catalog by the Chile's Transparency Board;-30.0, -71.0;-30.0;-71.0
Chilean Transparency Board;Chile;Chile;Chili;http://consejotransparencia.cl/consejo/site/edic/base/port/pcatalogo.html;;-33.4333, -70.6667;-33.4333;-70.6667
Region Of York, On Open Data;Canada;Canada;Canada;http://york.ca/regional+government/open+data/default+open+data.htm;;44.05139, -79.48028;44.05139;-79.48028
Ministry Of Education;Chad;Chad;Tchad;http://inseed-tchad.org;;12.1, 16.0333;12.1;16.0333
Mcp;China;China;Chine;http://219.238.166.215/mcp/;;35.0, 103.0;35.0;103.0
Linz Open Data;City Of Linz;Austria;Autriche;http://data.linz.gv.at/;"Official data catalogue of the City of Linz in Austria and the Open Commons region Linz providing several data sets for re-use under cc-by license. The site runs OpenCms with CKAN as a back end; the catalogue is also exposed directly at http://ckan.data.linz.gv.at.";48.3063888888, 14.286111111;48.30638889;14.28611111
Graz Open Data;Stadt Graz;Austria;Autriche;http://data.graz.gv.at;"Official open data portal for the city of Graz, Austria. The site runs OpenCms with CKAN as a back end; the catalogue is also exposed directly at http://ckan.data.graz.gv.at.";47.0666667, 15.45;47.0666667;15.45
Data.gv.at - Offene Daten Österreich;Federal Chancellery Of Austria;Austria;Autriche;http://data.gv.at/;data.gv.at offers a central access point to open (government) data in Austria.;47.3333333, 13.3333333;47.3333333;13.3333333
Australian Capital Territory - Environment And Planning Directorate;Australia;Australia;Australie;http://planning.act.gov.au/tools_resources;;-35.3081, 149.1244;-35.3081;149.1244
Victoria - Department Of Transport, Planning And Local Infrastructure;Australia;Australia;Australie;http://maps.land.vic.gov.au;;-37.81361, 144.96306;-37.81361;144.96306
Queensland - Department Of Natural Resources And Mines;Australia;Australia;Australie;http://dnrm.qld.gov.au/;;-23.0, 143.0;-23.0;143.0
Austrian Geological Society;Austria;Austria;Autriche;http://geol-ges.at;;48.2, 16.3667;48.2;16.3667
Kärnten Open Data;Austria;Austria;Autriche;http://data.ktn.gv.at/;;46.761, 13.819;46.761;13.819
Austrian Ogd Basemap;Austria;Austria;Autriche;http://basemap.at;;48.2, 16.35;48.2;16.35
Open Data Albania;Albania;Albania;Albanie;http://open.data.al;;41.0, 20.0;41.0;20.0
Danish Data Catalogue;National It & Telecom Agency (ministry Of Science);Denmark;Danemark;http://data.digitaliser.dk;Danish Public Data Catalogue;56.0, 1.0;56.0;10.0
European Space Agency - Copernicus Space Component Data Access;European Union;European Union;Union Européenne;http://gmesdata.esa.int;;50.85, 4.35;50.85;4.35
Dirrecão Nacional Meteorologia E Geofisica;Timor-leste;East Timor;Timor Oriental;http://dnmg.gov.tl/;;-8.5667, 125.5667;-8.5667;125.5667
African Development Bank Group Open Data;Ethiopia;Ethiopia;Ethiopie;http://ethiopia.opendataforafrica.org/;;59.0, 26.0;59.0;26.0
Czech Hydrometeorological Institute;Czech Republic;Czech Republic;République Tchèque;http://chmi.cz;;49.75, 15.75;49.75;15.75
Czech Republic Open Data;Czech Republic;Czech Republic;République Tchèque;http://cz.ckan.net/;;49.75, 15.75;49.75;15.75
Czech Statistical Office;Czech Republic;Czech Republic;République Tchèque;http://czso.cz;;49.75, 15.75;49.75;15.75
National Meteorological Services Agency;Ethiopia;Ethiopia;Ethiopie;http://ethiomet.gov.et/;;59.0, 26.0;59.0;26.0
Egypt Survey Authority;Egypt;Egypt;Egypte;http://esa.gov.eg;;26.0, 30.0;26.0;30.0
Geus;Denmark;Denmark;Danemark;http://geus.dk;;55.72, 12.57;55.72;12.57
STAR Open Data;STAR;France;France;https://data.explore.star.fr;Open Data mobility and transportation;48.1159675, -1.7235597;48.1159675;-1.7235597
Pas-de-Calais Open Data;ADT (Agence de Développement Touristique) Pas-de-Calais;France;France;http://tourisme62.opendatasoft.com/;;50.5127888, 1.8101079;50.5127888;1.8101079
Semantic Interoperability Centre Europe;European Union;European Union;Union Européenne;http://semic.eu/semic/view/snav/assetrepository.xhtml;;50.85, 4.35;50.85;4.35
Ville d'Agen Données Publiques;Ville d'Agen;France;France;https://data.agen.fr/;;44.2010925, 0.6126554;44.2010925;0.6126554
Bistrot de Pays;Bistrot de Pays;France;France;http://bistrotdepays.opendatasoft.com/;;48.85341, 2.3488;48.85341;2.3488
National Land Survey Of Finland;Finland;Finland;Finlande;http://maanmittauslaitos.fi;;64.0, 26.0;64.0;26.0
Côtes-d'armor;France;France;France;http://www.data-tourisme-cotesdarmor.com/;;48.3333, 2.8333;48.3333;2.8333
Infolocale;Infolocale;France;France;http://data.infolocale.fr/;;48.85341, 2.3488;48.85341;2.3488
Data Gov HK;Hong Kong Government;China;Chine;https://data.gov.hk/en;Data.One is the Hong Kong Government Open Data portal;22.2855225818, 114.157691002;22.28552258;114.157691
Agence Nationale De Météorologie Et De Télédétection Par Satellite;Congo, Democratic Republic Of The;Congo, Democratic Republic Of The;République démocratique du Congo;http://meteo-congo-kinshasa.net/;;-2.88, 23.656;-2.88;23.656
The Network For The Geological And Mining References;Congo, Democratic Republic Of The;Congo, Democratic Republic Of The;République démocratique du Congo;http://drcmining.org/;;-2.88, 23.656;-2.88;23.656
Democratic Republic Of The Congo Open Data;Congo, Democratic Republic Of The;Congo, Democratic Republic Of The;République démocratique du Congo;http://drcongo.opendataforafrica.org/;;-2.88, 23.656;-2.88;23.656
National Administrative Department Of Statistics;Colombia;Colombia;Colombie;http://dane.gov.co;;4.5833, -74.0667;4.5833;-74.0667
Instituto Nacional De Estadística Y Censos;Costa Rica;Costa Rica;Costa Rica;http://inec.go.cr;;9.9333, -84.0833;9.9333;-84.0833
Censo De Poblacion Y Viviendas;Cuba;Cuba;Cuba;http://cubagob.cu/otras_info/censo;;22.0, -79.5;22.0;-79.5
National Bureau Of Statistics Of China;China;China;Chine;http://stats.gov.cn;;35.0, 103.0;35.0;103.0
Hong Kong Open Data;Hong Kong;China;Chine;http://gov.hk/en/theme/psi;;22.267, 114.188;22.267;114.188
Zg Geoportal;Croatia;Croatia;Croatie;http://geoportal.zagreb.hr;;45.8167, 15.9833;45.8167;15.9833
Nosdonnées.fr;Regards Citoyens;France;France;http://www.nosdonnees.fr;A community driven catalogue for citizen based open data in France, relying on CKAN and operated by [Regards Citoyens](http://www.regardscitoyens.org/).;46.0, 2.0;46.0;2.0
Toulouse Métropole Open Data;Communauté Urbaine Du Grand Toulouse;France;France;https://data.toulouse-metropole.fr;France's city of Toulouse's Area OpenData store;43.6042618681, 1.44367218018;43.60426187;1.44367218
L'open Data Le Mans;Ville du Mans;France;France;http://www.lemans.fr/page.do?t=2&uuid=16CB26C7-550EA533-5AE8381B-D7A64AF8;Public datasets related to the City of Le Mans;48.0, 0.2;48.0;0.2
Angers Loire Metropol Data Catalog;France;France;France;http://data.angers.fr/;;47.4736, -0.5542;47.4736;-0.5542
Data.gouv.fr;French Etalab Mission;France;France;http://www.data.gouv.fr/;;46.0, 2.0;46.0;2.0
Ile-de-france Open Data;France;France;France;http://data.iledefrance.fr;;48.5, 2.5;48.5;2.5
Open Paca;France;France;France;http://opendata.regionpaca.fr;;44.0764, 5.9745;44.0764;5.9745
Baden-württemberg Data Portal;Landesregierung Baden-württemberg;Germany;Allemagne;http://opendata.service-bw.de/seiten/default.aspx;"Launched March 2012, a Sharepoint based data portal, for the German federal state Baden-Württemberg.

The catalogue holds datasets under different OKD Compliant and OKD Non-Compliant Licenses.";48.7606022094, 8.23974609375;48.76060221;8.239746094
Publicdata.eu;Open Knowledge Foundation;Germany;Allemagne;http://publicdata.eu/;"PublicData.eu federates metadata from local, regional and national data catalogues from across Europe.

Further details are available here: http://publicdata.eu/about";48.6909603909, 9.140625;48.69096039;9.140625
Iati Registry;Iati;Germany;Allemagne;http://iatiregistry.org/;"International Aid Transparency Initiative (IATI).

Open data for international aid. 

Launched Dec 2010";51.2806556542, 6.76714897156;51.28065565;6.767148972
European Central Bank - Statistical Data Warehouse;European Union;Germany;Allemagne;http://sdw.ecb.europa.eu/;;50.1213479, 8.4964813;50.1213479;8.4964813
Instituto Nacional De Estadística;Guatemala;Guatemala;Guatemala;http://ine.gob.gt;;14.6133, -90.5353;14.6133;-90.5353
National Statistical Service Of Greece;Greece;Greece;Grèce;http://statistics.gr;;39.0, 22.0;39.0;22.0
Rheinland-pfalz Open Data;Germany;Germany;Allemagne;http://daten.rlp.de/;;49.9131, 7.45;49.9131;7.45
Germany Datasets;Germany;Germany;Allemagne;http://offenedaten.de/;;50.95, 6.9667;50.95;6.9667
Ghana Statistical Service;Ghana;Ghana;Ghana;http://statsghana.gov.gh;;5.55, -0.2;5.55;-0.2
Greece National Data Portal;Greece;Greece;Grèce;http://data.gov.gr/;;39.0, 22.0;39.0;22.0
Republic Hydrometeorological Institute;Macedonia, The Former Yugoslav Republic Of;Macedonia;Macédoine;http://meteo.gov.mk/;;41.6, 21.7;41.6;21.7
Despesa Pública Portugal;Civic Initiave Portugal;Portugal;Portugal;http://www.despesapublica.com/;"Public Expenditure arises from the need to provide an accessible, organized, detailed and flexible enough information on how, where or by whom is spending taxpayers' money. All citizens have the right to access to this information, that can assist in controlling public expenditure, commenting, questioning, promoting and overseeing the spending of public institutions.

The state spends thousands of dollars on new technology platforms that enhance and facilitate the collection of revenue, however, regarding the provision of information on public institutions, their assets and expenditure, there is little information that is dispersed , poorly organized and difficult to access.

Transparency and easy access to information is the first instrument in fighting corruption, so do not understand why there is so much reluctance in most public institutions in providing this information.

It is intended that this project is a platform informative and useful to society. Not wanting to be sensationalist, or party, it is expected that citizens and different stakeholders see it as a support for growth of the country, citizen participation and fair competition in the supply of goods / services to the public sector.

The collection of this information is not always a simple process, and sometimes this is not 100% correct, so it's up to all of us proceed to its validation and require the institutions to provide increasingly, information and more accurate.

At this point is to collect through the site settings Direct base.gov.pt and enterprise data through the site publicações.mj.pt . Advantage has been taken to treat and store the information collected in a structured way, to be able to cross data from different sources. At present we can see, for example, adjustments were made ​​directly to the companies newly established . This functionality can be seen that some results are obtained very curious and dubious. Update 20/10/2015: not online anymore.";39.5, -8.0;39.5;-8.0
Tokelau National Statistics Office;Tokelau;New Zealand;Nouvelle-Zélande;http://tokelau.org.nz/tokelau+government/government+departments/office+of+the+council+for+the+ongoing+government+ocog/tokelau+national+statistics+office.html;;-9.1667, -171.8333;-9.1667;-171.8333
Georepertoire Du Gouvernement De La Nouvelle Calédonie;New Caledonia;New Caledonia;Nouvelle-Calédonie;http://georep.nc/;;-21.2044662, 164.7304855;-21.2044662;164.7304855
Organization Of African Geological Surveys;Africa;Namibia;Namibie;http://oagsafrica.org;;-22.8936061, 13.9990533;-22.8936061;13.9990533
Netherland Government Open Data;Netherlands;Netherlands;Pays-Bas;http://data.overheid.nl/english;;52.3167, 5.55;52.3167;5.55
Instituto Nacional De Información De Desarrollo;Nicaragua;Nicaragua;Nicaragua;http://inide.gob.ni;;13.0, -85.0;13.0;-85.0
Dirección General De Meteorología;Nicaragua;Nicaragua;Nicaragua;http://ineter.gob.ni/;;13.0, -85.0;13.0;-85.0
Ministry Of Mines And Energy;Namibia;Namibia;Namibie;http://mme.gov.na;;-22.57, 17.0861;-22.57;17.0861
Department Of Education And Sports;Nepal;Nepal;Népal;http://doe.gov.np;;26.5333, 86.7333;26.5333;86.7333
Nepal Government Open Data;Nepal;Nepal;Népal;http://data.opennepal.net/;;26.5333, 86.7333;26.5333;86.7333
Nigerian Meteorological Agency;Nigeria;Nigeria;Nigeria;http://nimet.gov.ng/;;8.0, 10.0;8.0;10.0
African Development Bank Group Open Data;Rwanda;Rwanda;Rwanda;http://rwanda.opendataforafrica.org/;;-1.9403, 29.8739;-1.9403;29.8739
Institute Of Contemporary Development;Russian Federation;Russia;Russie;http://datagov.ru/;;60.0, 90.0;60.0;90.0
National Institute Of Statistics;Romania;Romania;Roumanie;http://insse.ro;;44.4167, 26.1;44.4167;26.1
Portugal Government Open Data;Portugal;Portugal;Portugal;http://dados.gov.pt/;;38.7, -9.1833;38.7;-9.1833
Geological Society Of Poland;Poland;Poland;Pologne;http://ptgeol.pl;;50.0614, 19.9372;50.0614;19.9372
Explore Data Romania;Romania;Romania;Roumanie;http://exploredata.gov.ro;;44.4167, 26.1;44.4167;26.1
Instituto De Meteorologia;Portugal;Portugal;Portugal;http://meteo.pt/;;38.7, -9.1833;38.7;-9.1833
Qatar Statistics Authority;Qatar;Qatar;Qatar;http://qsa.gov.qa;;25.3, 51.5167;25.3;51.5167
Open Data Euskadi;Basque Government;Spain;Espagne;http://opendata.euskadi.net;"Open Data Euskadi.

-The open data catalog of the Basque Government (Spain). Since 2010, April.";43.3568885956, -3.01145553589;43.3568886;-3.011455536
Zaragoza Public Data Catalogue;Zaragoza;Spain;Espagne;http://datos.zaragoza.es;Zaragoza Public Data Catalogue;41.6560643303, -0.877339839935;41.65606433;-0.8773398399
Spain Government Data Portal;Government Of Spain;Spain;Espagne;http://datos.gob.es;Spanish national government data portal.;40.0, -4.0;40.0;-4.0
Grain;International Organizations;Spain;Espagne;http://grain.org/article/entries/4479-grain-releases-data-set-with-over-400-global-land-grabs#;;41.3833, 2.1833;41.3833;2.1833
South African Weather Service;South Africa;South Africa;Afrique du Sud;http://weathersa.co.za/;;-30.0, 25.0;-30.0;25.0
Córdoba Open Data;Spain;Spain;Espagne;http://opendatacordoba.com;;37.8833, -4.7667;37.8833;-4.7667
Valencia;Spain;Spain;Espagne;http://gobiernoabierto.valencia.es;;39.4667, -0.3833;39.4667;-0.3833
Aragon Open Data;Spain;Spain;Espagne;http://opendata.aragon.es;;41.0, -1.0;41.0;-1.0
Uae Open Data;United Arab Emirates Government;United Arab Emirates;Emirats arabes unis;http://www.government.ae/web/guest/uae-data;The UAE Government has adopted the Open Data practice to make government data and information seamlessly available to people. Under the Open Data, information is made usable, reusable and accessible to the public.;24.0, 54.0;24.0;54.0
Kent County Catalog;Supported By Kent County Council (kcc) In Collaboration With Applied Trends;United Kingdom;Royaume-Uni;http://picandmix.org.uk/categories/;Pic and Mix aims to increase public access to Kent-related datasets including those generated by Kent County Council (KCC), UK;51.1666667, 0.6666667;51.1666667;0.6666667
Food Standards Agency - The Composition Of Foods;United Kingdom;United Kingdom;Royaume-Uni;tna.europarchive.org/20110116113217/http://www.food.gov.uk/science/dietarysurveys/dietsurveys/;;51.5, -0.11667;51.5;-0.11667
Global Open Data For Agriculture And Nutrition (godan);International Organizations;United Kingdom;Royaume-Uni;http://godan.info/;;51.5975835, -1.1466333;51.5975835;-1.1466333
Manchester, England Open Data;United Kingdom;United Kingdom;Royaume-Uni;http://manchester.gov.uk/info/500215/open_data;;53.4667, -2.2333;53.4667;-2.2333
Merton Council Open Data;United Kingdom;United Kingdom;Royaume-Uni;http://merton.gov.uk/council/dp-foi/opendata.htm;;51.38333, -0.16667;51.38333;-0.16667
National Council For Voluntary Organisations;United Kingdom;United Kingdom;Royaume-Uni;http://data.ncvo.org.uk/;;51.5072, -0.1275;51.5072;-0.1275
Lichfield District Open Data;United Kingdom;United Kingdom;Royaume-Uni;http://www2.lichfielddc.gov.uk/data/;;52.68361, -1.82667;52.68361;-1.82667
Uk National Statistics;United Kingdom;United Kingdom;Royaume-Uni;http://statistics.gov.uk;;51.5, -0.11667;51.5;-0.11667
State Statistics Committee;Ukraine;Ukraine;Ukraine;http://ukrstat.gov.ua;;49.0, 32.0;49.0;32.0
Baltimore County, Md;United States;United States;Etats-Unis;http://baltimorecountymd.gov/agencies/infotech/gis/datadownload.html;;39.4, -76.6;39.4;-76.6
Bakersfield, Ca Geographic Information Services;United States;United States;Etats-Unis;http://bakersfieldcity.us/gis/;;35.3667, -119.0167;35.3667;-119.0167
Carson, Ca Gis - Property Information System;United States;United States;Etats-Unis;http://carsonproperty.info;;33.8397, -118.2597;33.8397;-118.2597
Madison County, Ny - Central New York Vitals;United States;United States;Etats-Unis;http://cnyvitals.org/madison;;42.91, -75.67;42.91;-75.67
Durham Open Data;Durham City and Durham County;United States;Etats-Unis;https://opendurham.nc.gov;;36.0020228, -79.0253388;36.0020228;-79.0253388
Buncombe County, Nc;United States;United States;Etats-Unis;http://buncombecounty.org/governing/depts/gis/;;35.61, -82.53;35.61;-82.53
Contra Costa County, Ca - Map Information System;United States;United States;Etats-Unis;http://ccmap.us;;37.93, -121.95;37.93;-121.95
Analyze Survey Data For Free;United States;United States;Etats-Unis;http://asdfree.com;;37.2753636, -104.6600208;37.2753636;-104.6600208
San Diego Open Data;United States;United States;Etats-Unis;http://catalog.opensandiego.org/;;32.715, -117.1625;32.715;-117.1625
Bureau Of Economic Analysis;United States;United States;Etats-Unis;http://bea.gov/itable/;;38.8951, -77.0367;38.8951;-77.0367
Virginia Beach Open Data;United States;United States;Etats-Unis;http://data.codeforhamptonroads.org/organization/city-of-virginia-beach;;36.8506, -75.9779;36.8506;-75.9779
Pierce County, Wa - Maps & Data;United States;United States;Etats-Unis;http://co.pierce.wa.us/index.aspx?nid=491;;47.05, -122.11;47.05;-122.11
Adams County, Co - Gis;United States;United States;Etats-Unis;http://co.adams.co.us/index.aspx?nid=1183;;39.87, -104.35;39.87;-104.35
Belleville, Il Open Data;United States;United States;Etats-Unis;http://data.illinois.gov/belleville;;38.5217, -89.9953;38.5217;-89.9953
Gainsville, Fl Open Data;United States;United States;Etats-Unis;http://data.cityofgainesville.org/;;29.652, -82.325;29.652;-82.325
Kentucky Post Secondary Education;United States;United States;Etats-Unis;http://cpe.ky.gov/info/;;38.197, -84.863;38.197;-84.863
Austin, Tx Open Data;United States;United States;Etats-Unis;http://data.austintexas.gov/;;30.25, -97.75;30.25;-97.75
Washington, Dc Open Data;United States;United States;Etats-Unis;http://data.dc.gov/;;38.8897, -77.0111;38.8897;-77.0111
Connecticut Data Collaborative;United States;United States;Etats-Unis;http://ctdata.org;;41.6, -72.7;41.6;-72.7
County Highpointers;United States;United States;Etats-Unis;http://cohp.org;;47.5, -120.5;47.5;-120.5
District Of Columbia;District Of Columbia;United States;Etats-Unis;http://data.octo.dc.gov;Access raw data files, databases, geographic data, and other data sources from the District of Columbia;38.9170559, -77.0002539;38.9170559;-77.0002539
Montgomery County, Md Open Data;United States;United States;Etats-Unis;http://data.montgomerycountymd.gov/;;39.14, -77.2;39.14;-77.2
Kansas City, Mo Open Data;United States;United States;Etats-Unis;http://data.kcmo.org/;;39.0997, -94.5783;39.0997;-94.5783
Montana Data Portal;United States;United States;Etats-Unis;http://data.mt.gov;;46.59556, -112.02694;46.59556;-112.02694
Oklahoma Open Data;United States;United States;Etats-Unis;http://data.ok.gov/;;35.4923, -97.5034;35.4923;-97.5034
Medicare Data;United States;United States;Etats-Unis;http://data.medicare.gov;;38.8951, -77.0367;38.8951;-77.0367
Missouri Open Data;United States;United States;Etats-Unis;http://data.mo.gov/;;38.5791, -92.173;38.5791;-92.173
Seattle, Wa Open Data;City Of Seattle;United States;Etats-Unis;http://data.seattle.gov/;The purpose of the City of Seattle Data Catalogue (data.seattle.gov) is to increase public access to high value, machine readable datasets generated by various departments of Seattle City government.;47.6062095, -122.3320708;47.6062095;-122.3320708
Virginia Auditor Of Public Accounts Commonwealth Data Point;State Of Virginia;United States;Etats-Unis;http://datapoint.apa.virginia.gov/;Virginia Datapoint Open Data;36.8529263, -75.977985;36.8529263;-75.977985
Alaska Division Of Geological & Geophysical Surveys;United States;United States;Etats-Unis;http://dggs.alaska.gov;;58.3, -134.41667;58.3;-134.41667
Oakland, Ca Open Data;United States;United States;Etats-Unis;http://data.openoakland.org/;;37.8044, -122.2708;37.8044;-122.2708
Somerville, Ma Open Data;United States;United States;Etats-Unis;http://data.somervillema.gov/;;42.3875, -71.1;42.3875;-71.1
Wake County, Nc Open Data;United States;United States;Etats-Unis;http://data.wakegov.com/;;35.79, -78.65;35.79;-78.65
Oregon Open Data;United States;United States;Etats-Unis;http://data.oregon.gov/;;44.9385, -123.0304;44.9385;-123.0304
Factual;United States;United States;Etats-Unis;http://developer.factual.com/;;38.8833, -77.0167;38.8833;-77.0167
Geographic Names Board Of New South Wales;Australia;Australia;Australie;http://gnb.nsw.gov.au;;-32.1617, 147.0178;-32.1617;147.0178
Datos Publicos;Http://garagelab.tumblr.com/;Argentina;Argentine;http://datospublicos.org/;;-34.6156625, -58.5033601;-34.6156625;-58.5033601
City Of Ballarat, Vic;Australia;Australia;Australie;http://data.gov.au/organization/city-of-ballarat;;-37.55, 143.85;-37.55;143.85
New South Wales Open Data;Australia;Australia;Australie;http://data.nsw.gov.au/;;-32.1617, 147.0178;-32.1617;147.0178
Glenorchy, Tas;Australia;Australia;Australie;http://data.gov.au/organization/gcc;;-42.8331, 147.2758;-42.8331;147.2758
National Statistical Service;Armenia;Armenia;Arménie;http://armstat.am;;40.1833, 44.5167;40.1833;44.5167
Queensland Open Data;Australia;Australia;Australie;http://data.qld.gov.au/;;-23.0, 143.0;-23.0;143.0
Geoscience Australia;Australia;Australia;Australie;http://ga.gov.au;;-35.3075, 149.1244;-35.3075;149.1244
Department D'estadistica;Andorra;Andorra;Andorre;http://estadistica.ad;;42.5, 1.5;42.5;1.5
Ministry Of Energy & Mines;Dominican Republic;Dominican Republic;République Dominicaine;http://dgm.gov.do;;19.0, -70.6667;19.0;-70.6667
Instituto Nacional De Meteorología E Hidrología;Ecuador;Ecuador;Equateur;http://inamhi.gob.ec/;;-0.15, -78.35;-0.15;-78.35
Transparency Data;Timor-leste;East Timor;Timor Oriental;http://transparency.gov.tl;;-8.5667, 125.5667;-8.5667;125.5667
Instituto Meteorológico Nacional;Costa Rica;Costa Rica;Costa Rica;http://imn.ac.cr/;;9.9333, -84.0833;9.9333;-84.0833
Costa Rica Open Data;Costa Rica;Costa Rica;Costa Rica;http://datosabiertos.gob.go.cr;;9.9333, -84.0833;9.9333;-84.0833
Map Supply - Geodatastyrelsens;Denmark;Denmark;Danemark;http://kortforsyningen.dk;;55.72, 12.57;55.72;12.57
Copenhagen Data;Copenhagen Municipality;Denmark;Danemark;http://data.kk.dk/;;55.72, 12.57;55.72;12.57
Ministerio De Educación;Ecuador;Ecuador;Equateur;http://educacion.gob.ec;;-0.15, -78.35;-0.15;-78.35
National Statistics Office;Cuba;Cuba;Cuba;http://one.cu;;22.0, -79.5;22.0;-79.5
Governo Aberto Do Estado De São Paulo;Governo Do Estado De São Paulo;Brazil;Brésil;http://www.governoaberto.sp.gov.br;"Databases from the state of São Paulo, Brazil. They're in an open format and downloads, some webservices and APIs are available.

Bases de dados do Estado de Sao Paulo, Brasil, em formato aberto, com download, webservice e APIs.";-22.0, -49.0;-22.0;-49.0
Brazil Government Open Data;Brazilian Government;Brazil;Brésil;http://dados.gov.br/;"Official Brazilian government data portal.

Development led by the Open Data Team (Augusto Herrmann, Christian Miranda, Nitai Bezerra) at the Ministry of Planning, Budget and Management. Uses CKAN with custom theme, plus Wordpress for the content areas.";-10.0, -55.0;-10.0;-55.0
Ministry-of-minerals-energy-and-water-resources-mmwer;Botswana;Botswana;Botswana;http://gov.bw/en/ministries--authorities/ministries/ministry-of-minerals-energy-and-water-resources-mmwer;;-24.6583, 25.9083;-24.6583;25.9083
Le Bureau Des Mines Et De La Géologie Du Burkina;Burkina Faso;Burkina Faso;Burkina Faso;http://bumigeb.bf;;12.3333, -1.6667;12.3333;-1.6667
Survey Of Brunei,ministry Of Development;Brunei Darussalam;Brunei Darussalam;Brunei;http://survey.gov.bn;;4.8903, 114.9422;4.8903;114.9422
Instituto Nacional De Estudos E Pesquisas Educacionais;Brazil;Brazil;Brésil;http://inep.gov.br;;-15.7833, -47.8667;-15.7833;-47.8667
The Brunei Meteorological Service;Brunei Darussalam;Brunei Darussalam;Brunei;http://bruneiweather.com.bn/;;4.8903, 114.9422;4.8903;114.9422
National Institute Of Meteorology And Hydrology;Bulgaria;Bulgaria;Bulgarie;http://meteo.bg;;42.75, 25.5;42.75;25.5
Botswana Meteorological Services;Botswana;Botswana;Botswana;http://weather.info.bw/;;-24.6583, 25.9083;-24.6583;25.9083
Service Météorologique National;Benin;Benin;Bénin;http://meteo-benin.net/;;6.3176, 5.6145;6.3176;5.6145
Ministry Of Mines - Afghanistan Geological Survey;Afghanistan;Afghanistan;Afghanistan;http://bgs.ac.uk/afghanminerals/;;34.5333, 69.1333;34.5333;69.1333
African Development Bank Group Open Data;Algeria;Algeria;Algerie;http://algeria.opendataforafrica.org/;;28.0, 2.0;28.0;2.0
Office National De La Météorologie;Algeria;Algeria;Algerie;http://meteo.dz/;;28.0, 2.0;28.0;2.0
Institutii Statistikave;Albania;Albania;Albanie;http://instat.gov.al;;41.0, 20.0;41.0;20.0
Institut D'estudis Andorrans;Andorra;Andorra;Andorre;http://iea.ad;;42.5, 1.5;42.5;1.5
Dataact (australian Capital Territory);Act Government Government Information Office;Australia;Australie;https://data.act.gov.au/;dataACT is an open data service initiative for the ACT community that enables individuals, businesses, data journalists, NGOs and even other people in the public sector to access, explore and build upon existing government data sets in new and innovative ways.;-26.685123, 115.0674079;-26.685123;115.0674079
Research Data Australia;Australian National Data Service;Australia;Australie;http://researchdata.ands.org.au/;Research Data Australia is a discovery service for Australian research data.;-35.2802734, 149.1042832;-35.2802734;149.1042832
South Australia Housing Property And Land;Australia;Australia;Australie;http://sa.gov.au/topics/housing-property-and-land;;-34.92889, 138.60083;-34.92889;138.60083
Australian Antarctica Data Centre;Australia;Australia;Australie;http://www1.data.antarctica.gov.au/;;-35.3075, 149.1244;-35.3075;149.1244
Geological Institute - National Academy Of Science;Azerbaijan;Azerbaijan;Azerbaïdjan;http://gia.az;;40.3, 47.7;40.3;47.7
Vienna Open Data;Austria;Austria;Autriche;http://open.wien.at/site/datenkatalog/;;48.2, 16.3667;48.2;16.3667
Central Informatics Organisation;Bahrain;Bahrain;Bahreïn;http://cio.gov.bh;;26.0275, 50.55;26.0275;50.55
Vorarlberg Open Data;Austria;Austria;Autriche;http://vorarlberg.gv.at/;;47.2436, 9.8939;47.2436;9.8939
Open Data Portal Austria;Austria;Austria;Autriche;http://opendataportal.at/;;48.2, 16.35;48.2;16.35
Geologische Bundesanstalt;Austria;Austria;Autriche;http://geologie.ac.at;;48.2, 16.35;48.2;16.35
La Nacion;La Nacion (argentina);Argentina;Argentine;http://data.lanacion.com.ar/;Data publisehed by La Nacion newspaper in Argentina (in Spanish).;-34.6, -58.3833;-34.6;-58.3833
Tasmania - Land Property And Titles;Australia;Australia;Australie;http://dpipwe.tas.gov.au/land-property-titles/;;-42.0, 147.0;-42.0;147.0
City Of Launceston, Tas;Australia;Australia;Australie;http://data.gov.au/organization/cityoflaunceston;;-41.4419, 147.145;-41.4419;147.145
Bahaia Blanca Open Data;Argentina;Argentina;Argentine;http://bahiablanca.opendata.junar.com/home/;;-38.7167, -62.2667;-38.7167;-62.2667
Instituto Nacional De Estadística Y Censos;Argentina;Argentina;Argentine;http://indec.mecon.ar;;-34.6, -58.3833;-34.6;-58.3833
Melbourne, Vic;Australia;Australia;Australie;http://data.gov.au/organization/cityofmelbourne;;-37.8136, 144.9631;-37.8136;144.9631
Institute Of Geological Sciences (igs);Armenia;Armenia;Arménie;http://geology.am;;40.1833, 44.5167;40.1833;44.5167
Australian Bureau Of Statistics;Australia;Australia;Australie;http://abs.gov.au;;-35.3075, 149.1244;-35.3075;149.1244
Local Government Data;Australia;Australia;Australie;http://localdata.net.au/;;-35.308, 149.1245;-35.308;149.1245
Western Australia - Landgate;Australia;Australia;Australie;http://landgate.wa.gov.au;;-26.0, 121.0;-26.0;121.0
Montréal, Québec;Ville De Montréal;Canada;Canada;http://donnees.ville.montreal.qc.ca/;Adapted the [CC BY-SA](http://donnees.ville.montreal.qc.ca/licence) license.;45.5088375, -73.587809;45.5088375;-73.587809
Fredericton, Nb Open Data;Canada;Canada;Canada;http://fredericton.ca/en/citygovernment/datamain.asp;;45.95, -66.6667;45.95;-66.6667
Newfoundland & Labrador Geological Survey;Canada;Canada;Canada;http://nr.gov.nl.ca/mines&en/geosurvey;;53.0, -60.0;53.0;-60.0
Milton, On Open Data;Canada;Canada;Canada;http://icreateopendata.public.esolutionsgroup.ca/;;43.5083, -79.8833;43.5083;-79.8833
Saskatoon, Sk Open Data;Canada;Canada;Canada;http://opendata-saskatoon.cloudapp.net/;;52.1333, -106.6833;52.1333;-106.6833
Prince Edward Island Gis Data Layers;Canada;Canada;Canada;http://gov.pe.ca/gis/;;46.25, -63.0;46.25;-63.0
Winnipeg Open Data;Canada;Canada;Canada;http://data.winnipeg.ca;;49.8994, -97.1392;49.8994;-97.1392
Nova Scotia Geonova;Canada;Canada;Canada;http://novascotia.ca/geonova;;45.0, -63.0;45.0;-63.0
Nanaimo, British Columbia;City Of Nanaimo;Canada;Canada;http://data.nanaimo.ca/;Uses [Open Data Publisher](http://opendatapublisher.codeplex.com/), a fork of Microsoft's [OGDI project](http://ogdi.codeplex.com/). The City of Nanaimo is currently investigating options for formal open data licensing. See the [disclaimer](http://www.nanaimo.ca/EN/main/departments/106/DataCatalogue/Licence.html). Offers an [API](http://www.nanaimo.ca/EN/main/departments/106/DataCatalogue/Developers.html).;49.166337382, -123.936012692;49.16633738;-123.9360127
Medicine Hat, Alberta;City Of Medicine Hat;Canada;Canada;http://data.medicinehat.ca/;You may send feedback via [email](opendata@medicinehat.ca) or [Twitter](https://twitter.com/#!/OpenDataMedHat). Adapted the [Vancouver license](http://www.medicinehat.ca/City%20Government/Open%20Data/Terms%20of%20Use.asp). Uses [OGDI](http://data.medicinehat.ca/Developers/Index).;50.050059602, -110.668342521;50.0500596;-110.6683425
Québec;Province De Québec;Canada;Canada;http://data.gouv.qc.ca/;You may [send feedback](http://data.gouv.qc.ca/?node=/nous-joindre) and [request datasets](http://data.gouv.qc.ca/?node=/demande-donnees) via webform. Uses its [own license](http://data.gouv.qc.ca/?node=/licence).;46.8122791164, -71.2145376205;46.81227912;-71.21453762
Capital Regional District Atlas;Canada;Canada;Canada;http://crdatlas.ca/geospatial-data.aspx;;48.4293, -123.3661;48.4293;-123.3661
Direction De La Météorologie;Burkina Faso;Burkina Faso;Burkina Faso;http://meteo-burkina.net/;;12.3333, -1.6667;12.3333;-1.6667
Ariel Photos Of Banff, Ab;Canada;Canada;Canada;http://banff.ca/index.aspx?nid=885;;51.1781, -115.5719;51.1781;-115.5719
Windsor, On Open Data;Canada;Canada;Canada;http://citywindsor.ca/opendata;;42.2833, -83.0;42.2833;-83.0
Porto Alegre Open Data;Brazil;Brazil;Brésil;http://datapoa.com.br/;;-30.0331, -51.23;-30.0331;-51.23
Canada Climate Data;Canada;Canada;Canada;http://climate.weather.gc.ca/;;45.4, -75.6667;45.4;-75.6667
Alberta Geological Survey;Canada;Canada;Canada;http://ags.gov.ab.ca;;55.0, -115.0;55.0;-115.0
Brazil Open Data;Open Knowledge Foundation;Brazil;Brésil;http://br.ckan.net/;"Community driven open data portal for Brazil.

Runs on the [CKAN software](http://ckan.org/).

Coordinated by Augusto Herrmann.";-10.0, -55.0;-10.0;-55.0
Brussels Open Data;Belgium;Belgium;Belgique;http://www.brussels.be/artdet.cfm/7191;Ville de Bruxelles;50.85, 4.35;50.85;4.35
Institut National De La Statistique Et De L'nalyse Economique;Benin;Benin;Bénin;http://insae-bj.org;;6.3176, 5.6145;6.3176;5.6145
Geological Survey Of Brazil (cprm);Brazil;Brazil;Brésil;http://cprm.gov.br;;-15.7833, -47.8667;-15.7833;-47.8667
Geological Survey Of Bangladesh;Bangladesh;Bangladesh;Bangladesh;http://gsb.gov.bd;;23.7, 90.35;23.7;90.35
Belgium Meteorological Office;Belgium;Belgium;Belgique;http://www.meteo.be;;50.85, 4.35;50.85;4.35
Belgium Government Open Data;Belgium;Belgium;Belgique;http://data.gov.be/;;50.85, 4.35;50.85;4.35
Ministry Of Education;Bangladesh;Bangladesh;Bangladesh;http://moedu.gov.bd;;23.7, 90.35;23.7;90.35
Alagoas;Alagoas;Brazil;Brésil;http://dados.al.gov.br/;;-9.6566401, -37.2516149;-9.6566401;-37.2516149
Statistics Belgium;Belgium;Belgium;Belgique;http://statbel.fgov.be;;50.85, 4.35;50.85;4.35
Canada;Government Of Canada;Canada;Canada;http://www.data.gc.ca/;You may send [feedback](http://www.data.gc.ca/default.asp?lang=En&n=E028144D-1), [request datasets](http://www.data.gc.ca/default.asp?lang=En&n=8A4E1E4D-1) and subscribe to [dataset updates](http://www.data.gc.ca/default.asp?lang=En&SyndFeed=DCCE2653-4AEC-42B2-9D95-B61951852606). Uses its [own license](http://www.data.gc.ca/default.asp?lang=En&n=46D15882-1). See the [FAQ](http://www.data.gc.ca/default.asp?lang=En&n=C5DBADB8-1).;60.108670463, -113.642578125;60.10867046;-113.6425781
Prince George, British Columbia;City Of Prince George;Canada;Canada;http://princegeorge.ca/cityservices/online/odc/pages/documents.aspx;Adapted the [Vancouver license](http://princegeorge.ca/cityservices/online/odc/Pages/Terms.aspx) (roughly).;53.916603153, -122.753014555;53.91660315;-122.7530146
Thunder Bay, On - Transit Api;Canada;Canada;Canada;http://thunderbay.ca/living/getting_around/thunder_bay_transit/developers_-_open_data.htm;;48.3822, -89.2461;48.3822;-89.2461
Vancouver, Bc Open Data;Canada;Canada;Canada;http://vancouver.ca/your-government/open-data-catalogue.aspx;;49.25, -123.1;49.25;-123.1
Open Data Bc Crowdsourced Portal;Canada;Canada;Canada;http://www.opendatabc.ca;;54.0, -125.0;54.0;-125.0
Banff, Ab Open Data;Canada;Canada;Canada;http://www.banffopendata.ca;;51.1781, -115.5719;51.1781;-115.5719
Toronto, On Open Data;Canada;Canada;Canada;http://toronto.ca/open;;43.7, -79.4;43.7;-79.4
Saskatoon, Saskatchewan;City Of Saskatoon;Canada;Canada;http://www.saskatoon.ca/departments/corporate%20services/corporate%20information%20services/opendata/pages/opendata.aspx;You may [send feedback](http://www.saskatoon.ca/DEPARTMENTS/Corporate%20Services/Corporate%20Information%20Services/OpenData/Pages/OpenData.aspx) via webform. Uses its [own license](http://www.saskatoon.ca/DEPARTMENTS/Corporate%20Services/Corporate%20Information%20Services/OpenData/Pages/TermsofService.aspx), similar to that of Red Deer.;52.116786331, -106.634521548;52.11678633;-106.6345215
Ottawa, Ontario;City Of Ottawa;Canada;Canada;http://www.ottawa.ca/en/city_hall/statisticsdata/opendata/info/index.htm;"You may send feedback via [email](mailto:opendata@ottawa.ca) or [webform](https://ottawa.ca/cgi-bin/form.cgi?dir=opendata&form=form_en) and [request datasets](http://www.dataott.org/app/). Adapted the [Vancouver license](http://www.ottawa.ca/en/city_hall/statisticsdata/opendata/terms/index.htm).

Short URL: http://ottawa.ca/opendata";45.4111650793, -75.6981182098;45.41116508;-75.69811821
Regional District Of North Okanagan, British Columbia;Regional District Of North Okanagan;Canada;Canada;http://www.rdno.ca/index.php/maps/digital-data;You may send feedback via [email](gistech@rdno.ca) or [webform](http://www.rdno.ca/index.php/maps/interactive-mapping-application-feedback). Uses its [own restrictive license](http://www.rdno.ca/index.php/maps/digital-data-terms-of-use).;50.416514678, -118.752318369;50.41651468;-118.7523184
République Direction Générale De La Statistique;Central African Republic;Central African Republic;République Centrafricaine;http://stat-centrafrique.com/;;4.3667, 18.5833;4.3667;18.5833
Caribbean Community Regional Statistics;Caribbean;Caribbean;Caraïbes;http://caricomstats.org;;6.7875868, -58.1865529;6.7875868;-58.1865529
Catálogo Nacional De Información Geoespacial;Chile;Chile;Chili;http://geoportal.cl;;-33.4333, -70.6667;-33.4333;-70.6667
China Meteorological Administration;China;China;Chine;http://cma.gov.cn/;;35.0, 103.0;35.0;103.0
Cgn;China;China;Chine;http://cgn.ac.cn;;35.0, 103.0;35.0;103.0
Trafford Open Data;Borough of Trafford;England;Angleterre;http://www.trafford.gov.uk/opendata;Borough of Trafford (UK) Open Data Catalog;53.4166667, -2.3333333;53.4166667;-2.3333333
Ministry Of Education And Human Resource Development;Dominican Republic;Dominican Republic;République Dominicaine;http://dominica.gov.dm/education-and-human-resource-development;;19.0, -70.6667;19.0;-70.6667
European Commission Eurostat;European Union;European Union;Union Européenne;http://epp.eurostat.ec.europa.eu/portal/page/portal/statistics/themes;;50.85, 4.35;50.85;4.35
Encuesta Nacional De Hogares De Propósitos Múltiples;Dominican Republic;Dominican Republic;République Dominicaine;http://one.gov.do;;19.0, -70.6667;19.0;-70.6667
African Development Bank Group Open Data;Equatorial Guinea;Equatorial Guinea;Guinée Equatoriale;http://equinea.opendataforafrica.org/;;3.45, 8.55;3.45;8.55
Estadistico Instituto Nacional De Estadística Y Censos;Ecuador;Ecuador;Equateur;http://inec.gob.ec/estadisticas/;;-0.15, -78.35;-0.15;-78.35
General Directorate Of Statistics;Timor-leste;East Timor;Timor Oriental;http://statistics.gov.tl;;-8.5667, 125.5667;-8.5667;125.5667
Czech Geological Society;Czech Republic;Czech Republic;République Tchèque;http://geologickaspolecnost.cz;;49.75, 15.75;49.75;15.75
Meteorological And Hydrological Service;Croatia;Croatia;Croatie;http://meteo.hr;;45.8, 16.0;45.8;16.0
Place Names Board Of Estonia;Estonia;Estonia;Estonie;http://eki.ee/knn;;59.0, 26.0;59.0;26.0
Centre National De La Statistique Et Des Etudes Economiques;Congo, Republic Of;Congo, Republic Of;République du Congo;http://cnsee.org;;-1.44, 15.556;-1.44;15.556
African Development Bank Group Open Data;Congo, Republic Of;Congo, Republic Of;République du Congo;http://rcongo.opendataforafrica.org/;;-1.44, 15.556;-1.44;15.556
Direction De La Météorologie Nationale;Congo, Republic Of;Congo, Republic Of;République du Congo;http://meteo congo;;-1.44, 15.556;-1.44;15.556
Instituto De Hidrología, Meteorología Y Estudios Ambientales;Colombia;Colombia;Colombie;http://ideam.gov.co/;;4.5833, -74.0667;4.5833;-74.0667
International Union Of Geological Scientists;International Organizations;China;Chine;http://iugs.org/;;39.9390731, 116.1172755;39.9390731;116.1172755
Fengyun Satellite Data Center;China;China;Chine;http://satellite.cma.gov.cn/portalsite/data/satellite.aspx;;35.0, 103.0;35.0;103.0
Association Of European Geological Societies;European Union;Croatia;Croatie;http://aegs.it;;42.6457558, 18.0765484;42.6457558;18.0765484
Cook Islands Statistics Office;Cook Islands;Cook Islands;Iles Cook;http://mfem.gov.ck;;-21.2, -159.7667;-21.2;-159.7667
Hrvatski Geloski Institut;Croatia;Croatia;Croatie;http://hgi-cgs.hr;;45.8, 16.0;45.8;16.0
Lands Department;Hong Kong;China;Chine;http://landsd.gov.hk;;22.267, 114.188;22.267;114.188
Infogreffe Open Data;Infogreffe;France;France;http://datainfogreffe.fr/;Open data portal gathering data about French companies;48.85341, 2.3488;48.85341;2.3488
Research Institute For The Languages Of Finland - Names Of Countries In Seven Languages;Finland;Finland;Finlande;http://kaino.kotus.fi/maidennimet/index.php?h=en;;64.0, 26.0;64.0;26.0
Engage European Open Data;European Union;European Union;Union Européenne;http://www.engagedata.eu/opendatasites;;50.85, 4.35;50.85;4.35
Tampere Public Transport - Api;Finland;Finland;Finlande;http://developer.publictransport.tampere.fi;;61.5, 23.7667;61.5;23.7667
Helsinki Regional Transport Open Data/api;Finland;Finland;Finlande;http://dev.hsl.fi/;;60.1708, 24.9375;60.1708;24.9375
Ess-eric;European Union;European Union;Union Européenne;http://europeansocialsurvey.org/data/;;50.85, 4.35;50.85;4.35
Oulu Open Data;Finland;Finland;Finlande;http://ouka.fi/oulu/english/open-data;;65.0167, 25.4667;65.0167;25.4667
Office Of Statistics, Budget And Economic Management;Micronesia, Federated States Of;Micronesia;Micronésie;http://sboc.fm;;6.9167, 158.1833;6.9167;158.1833
Department Of Meteorology And Hydrology;Lao People's Democratic Republic;Laos;Laos;http://dmhlao.etllao.com/;;17.9667, 102.6;17.9667;102.6
State Statistical Office;Macedonia, The Former Yugoslav Republic Of;Macedonia;Macédoine;http://stat.gov.mk;;41.6, 21.7;41.6;21.7
African Development Bank Group Open Data;Malawi;Malawi;Malawi;http://malawi.opendataforafrica.org/;;-13.95, 33.7;-13.95;33.7
Institut National De La Statistique De Madagascar;Madagascar;Madagascar;Madagascar;http://instat.mg;;-20.0, 47.0;-20.0;47.0
Afganistan Open Data Project;Afghanistan;Afghanistan;Afghanistan;http://afghanistandataproject.org;;34.5333, 69.1333;34.5333;69.1333
Service Geologique National Algeria;Algeria;Algeria;Algerie;http://mem-algeria.org;;28.0, 2.0;28.0;2.0
Albanian Geological Survey;Albania;Albania;Albanie;http://gsa.gov.al/;;41.0, 20.0;41.0;20.0
The World Bank Catalog;World Bank;United States;Etats-Unis;http://developer.worldbank.org;The World Bank's first API offers 114 indicators from key data sources and 12,000 development photos.;47.6161756, -122.3439727;47.6161756;-122.3439727
Feeding America - Local Food Banks;United States;United States;Etats-Unis;http://feedingamerica.org/find-your-local-foodbank/?_ga=1.223258523.1626167282.1417548401;;41.8369, -87.6847;41.8369;-87.6847
Fbi Unified Crime Reports (ucr);United States;United States;Etats-Unis;http://fbi.gov/about-us/cjis/ucr;;38.8951, -77.0367;38.8951;-77.0367
Us Aid - Demographic And Health Surveys;United States;United States;Etats-Unis;http://dhsprogram.com;;38.8951, -77.0367;38.8951;-77.0367
United Nations Environment Programme;United Nations;United States;Etats-Unis;http://geodata.grid.unep.ch;;40.749, -73.968;40.749;-73.968
Washington Dc Metro Api;United States;United States;Etats-Unis;http://developer.wmata.com/;;38.8897, -77.0111;38.8897;-77.0111
Utah Geological Survey;United States;United States;Etats-Unis;http://geology.utah.gov/;;38.2, -111.16667;38.2;-111.16667
Washington Transparency;United States;United States;Etats-Unis;http://fiscal.wa.gov;;47.0358, -122.9047;47.0358;-122.9047
Delaware Geological Survey;United States;United States;Etats-Unis;http://dgs.udel.edu;;39.0, -75.5;39.0;-75.5
California Climate Commons;California Climate Commons;United States;Etats-Unis;http://climate.calcommons.org/lists/datasets;Searchable catalog of climate data hosted at California Climate Commons Commons and elsewhere.;37.2502247, -119.7512643;37.2502247;-119.7512643
Atlanta Regional Commission - Gis Maps And Data;United States;United States;Etats-Unis;http://atlantaregional.com/info-center/gis-data-maps;;33.755, -84.39;33.755;-84.39
Center For Naval Analysis - Ship Database;United States;United States;Etats-Unis;http://cna.org/centers/operations-tactics/ship-database;;38.8803, -77.1083;38.8803;-77.1083
Winston-salem, Nc Gis;United States;United States;Etats-Unis;http://cityofws.org/departments/planning/gis;;36.1028, -80.2605;36.1028;-80.2605
World Bank - Actionable Governance Indicators;United Nations;United States;Etats-Unis;http://agidata.org;;40.749, -73.968;40.749;-73.968
Bexar County, Tx - Gis Open Data;United States;United States;Etats-Unis;http://bexar.org/569/gis-open-data;;29.45, -98.52;29.45;-98.52
The Arizona Geological Survey;United States;United States;Etats-Unis;http://azgs.az.gov;;34.54167, -112.46944;34.54167;-112.46944
Berkeley, Ca;United States;United States;Etats-Unis;http://ci.berkeley.ca.us/datacatalog/;;37.8717, -122.2728;37.8717;-122.2728
Open Source Portal For Open Data;United States;United States;Etats-Unis;http://ckan.org/;;38.8833, -77.0167;38.8833;-77.0167
Aid Data;International Organizations;United States;Etats-Unis;http://aiddata.org;;38.8951, -77.0367;38.8951;-77.0367
Scotland School Statistics;United Kingdom;United Kingdom;Royaume-Uni;http://scotland.gov.uk/topics/statistics/browse/school-education/datasets;;55.95, -3.1833;55.95;-3.1833
Department Of Transportation;United Kingdom;United Kingdom;Royaume-Uni;http://www.gov.uk/government/collections/vehicles-statistics;;51.5, -0.11667;51.5;-0.11667
Exeter Open Data;United Kingdom;United Kingdom;Royaume-Uni;http://www.exeter.gov.uk/index.aspx?articleid=13235;;50.7167, -3.5333;50.7167;-3.5333
Northern Ireland Open Data;United Kingdom;United Kingdom;Royaume-Uni;http://www.opendatani.info;;54.6, -5.91667;54.6;-5.91667
Salford Open Data;United Kingdom;United Kingdom;Royaume-Uni;http://salford.gov.uk/opendata.htm;;53.5097, -2.3344;53.5097;-2.3344
West Sussex County;United Kingdom;United Kingdom;Royaume-Uni;http://performance.westsussex.gov.uk;;50.9167, -0.5;50.9167;-0.5
Wyre Council Open Data;United Kingdom;United Kingdom;Royaume-Uni;http://wyre.gov.uk/opendata;;53.9, -2.80889;53.9;-2.80889
Kent County Open Data;United Kingdom;United Kingdom;Royaume-Uni;http://openkent.org.uk;;51.19, 0.73;51.19;0.73
Hampshire Hub;United Kingdom;United Kingdom;Royaume-Uni;http://protohub.net;;51.08333, -1.25;51.08333;-1.25
Abre Puerto Rico;Puerto Rico;United States;Etats-Unis;http://abrepr.org/;;18.45, -66.1;18.45;-66.1
Fresno County, Ca - Maps And Gis Information;United States;United States;Etats-Unis;http://co.fresno.ca.us/departmentpage.aspx?id=16313;;36.75, -119.65;36.75;-119.65
Center For Medicare & Medicad Services;United States;United States;Etats-Unis;http://data.cms.gov/;;38.8951, -77.0367;38.8951;-77.0367
Palo Alto, Ca Open Data;United States;United States;Etats-Unis;http://data.cityofpaloalto.org/;;37.4292, -122.1381;37.4292;-122.1381
Data Driven Detroit;United States;United States;Etats-Unis;http://d3.d3.opendata.arcgis.com;;39.7392, -104.9847;39.7392;-104.9847
Burlington, Vt Open Data;United States;United States;Etats-Unis;http://data.burlingtonvt.gov/;;44.4758, -73.2119;44.4758;-73.2119
Chicago, Il Open Data;United States;United States;Etats-Unis;http://data.cityofchicago.org/;;41.8819, -87.6278;41.8819;-87.6278
Carver County, Mn;United States;United States;Etats-Unis;http://data.carver.opendata.arcgis.com;;44.82, -93.8;44.82;-93.8
Boston, Ma Open Data;United States;United States;Etats-Unis;http://data.cityofboston.gov/;;42.3581, -71.0636;42.3581;-71.0636
Baton Rouge, La Open Data;United States;United States;Etats-Unis;http://data.brla.gov;;30.45, -91.14;30.45;-91.14
Culver City, Ca;United States;United States;Etats-Unis;http://data.culvercity.org;;34.0078, -118.4008;34.0078;-118.4008
Open Colorado;Colorado Smart Communities;United States;Etats-Unis;http://data.opencolorado.org/;"Community-led collection of State data.

Facilitator: Sean Hudson / Colorado Smart Communities

Runs CKAN with custom theme.";38.8338816, -104.8213634;38.8338816;-104.8213634
Denver Open Data Catalog;City And County Of Denver;United States;Etats-Unis;http://data.denvergov.org/;Official data portal for the City and County of Denver, Colorado, created in partnership with Open Colorado.;39.7391536, -104.9847034;39.7391536;-104.9847034
Fort Worth, Tx Open Data;United States;United States;Etats-Unis;http://data.fortworthtexas.gov;;32.7574, -97.3332;32.7574;-97.3332
Champaign, Il Open Data;United States;United States;Etats-Unis;http://data.illinois.gov/champaign;;40.113, -88.2612;40.113;-88.2612
King County, Wa Open Data;United States;United States;Etats-Unis;http://data.kingcounty.gov;;47.47, -121.84;47.47;-121.84
Michigan Open Data;United States;United States;Etats-Unis;http://data.michigan.gov;;42.73361, -84.54667;42.73361;-84.54667
Maryland Imap;United States;United States;Etats-Unis;http://data.imap.maryland.gov;;38.97278, -76.50111;38.97278;-76.50111
University Of Southampton Open Data;University Of Southampton;United Kingdom;Royaume-Uni;http://data.southampton.ac.uk/home.html;"The University of Southampton provides open access to some of our administrative data.

We believe that this will be of benefit to our own members and visitors, and increase the transparency of our operations.";50.9039464904, -1.40428205531;50.90394649;-1.404282055
Oxford University Open Data;University Of Oxford;United Kingdom;Royaume-Uni;http://data.ox.ac.uk/;The site aims to collect data from around the University and make it available for reuse as linked data under open licenses.;51.7522210026, -1.25596046448;51.752221;-1.255960464
North Devon Council Open Data;United Kingdom;United Kingdom;Royaume-Uni;http://northdevon.gov.uk/index/lgcl_council_government_and_democracy/nonlgcl_open_data.htm;;51.081, -4.058;51.081;-4.058
Aberdeen City Open Data  Portal;United Kingdom;United Kingdom;Royaume-Uni;http://opendata.aberdeencity.gov.uk;;57.1526, -2.11;57.1526;-2.11
Kent County Open Data;United Kingdom;United Kingdom;Royaume-Uni;http://kent.gov.uk/your_council/open_data.asp;;51.19, 0.73;51.19;0.73
Statistics Department;Montserrat;United Kingdom;Royaume-Uni;http://gov.ms/pubs/statistics-department;;16.75, -62.2;16.75;-62.2
Nottingham Open Data;United Kingdom;United Kingdom;Royaume-Uni;http://opendatanottingham.org.uk/;;52.95, -1.1333;52.95;-1.1333
United Kingdom Open Data;United Kingdom;United Kingdom;Royaume-Uni;http://data.gov.uk/;;51.5, -0.11667;51.5;-0.11667
Eduinnfo;United Kingdom;United Kingdom;Royaume-Uni;http://eduinfo.co.uk/;;51.5072, -0.1275;51.5072;-0.1275
Ukrainian Geologists;Ukraine;Ukraine;Ukraine;http://geolog.org.ua;;50.45, 30.5233;50.45;30.5233
Pennsylvania - Bureau Of Topographic And Geologic Survey;United States;United States;Etats-Unis;http://dcnr.state.pa.us/topogeo;;39.96278, -76.72806;39.96278;-76.72806
Cook County, Il Open Data;United States;United States;Etats-Unis;http://datacatalog.cookcountyil.gov/;;41.93806, -87.86861;41.93806;-87.86861
United Nations Data Mart;United Nations;United States;Etats-Unis;http://data.un.org/datamartinfo.aspx;;40.749, -73.968;40.749;-73.968
South Bend, In Open Data;United States;United States;Etats-Unis;http://data.southbendin.gov/;;41.6725, -86.2553;41.6725;-86.2553
Santa Monica, Ca Data Portal;United States;United States;Etats-Unis;http://data.smgov.net;;34.0219, -118.4814;34.0219;-118.4814
Raleigh, Nc Open Data;United States;United States;Etats-Unis;http://data.raleighnc.gov/;;35.7806, -78.6389;35.7806;-78.6389
Virginia Open Data;United States;United States;Etats-Unis;http://data.openva.com/;;37.27083, -76.70694;37.27083;-76.70694
The World Bank;United Nations;United States;Etats-Unis;http://data.worldbank.org/;;40.749, -73.968;40.749;-73.968
Esri Geoportal Server Open Source;Esri, Inc.;United States;Etats-Unis;http://gptogc.esri.com/geoportal;Free sample catalog built using the open source Esri Geoportal Server ([This link](http://esriurl.com/geoportalserver)).;34.0527791, -117.1857895;34.0527791;-117.1857895
Open Grocery Database Project;United States;United States;Etats-Unis;http://grocery.com/open-grocery-database-project/;;33.9131814, -118.3635771;33.9131814;-118.3635771
Montgomery County, Al - Arcgis;United States;United States;Etats-Unis;http://gis.montgomeryal.gov/arcgis/rest/services;;32.2192, -86.2094;32.2192;-86.2094
University Of Washington: Global Health Data Exchange;United States;United States;Etats-Unis;http://ghdx.org;;47.655, -122.308;47.655;-122.308
Mississippi Geospatial Clearinghouse;United States;United States;Etats-Unis;http://gis.ms.gov;;32.29889, -90.18472;32.29889;-90.18472
Indiana Geological Survey;United States;United States;Etats-Unis;http://igs.indiana.edu;;39.791, -86.148;39.791;-86.148
Ny Gis Clearinghouse;United States;United States;Etats-Unis;http://gis.ny.gov;;42.6525, -73.75722;42.6525;-73.75722
Atllanta, Ga - Gis;United States;United States;Etats-Unis;http://gis.atlantaga.gov/;;33.755, -84.39;33.755;-84.39
Fgdc Geoplatform;United States;United States;Etats-Unis;http://geoplatform.gov;;38.8951, -77.0367;38.8951;-77.0367
Map Your Taxes - Missouri Accountability Portal;Office Of Administration, Missouri;United States;Etats-Unis;http://mapyourtaxes.mo.gov/map/portal/default.aspx;"The MAP site is presented to the citizens of Missouri as a single point of reference to review how their money is being spent and other pertinent information related to the enforcement of government programs.  As you browse the MAP site you will be able to view information about state agency expenditures, the distribution of economic development tax credits, state employee pay information, and revenues and expenditures related to the American Recovery and Reinvestment Act of 2009. 

The data on the MAP site is updated each business day. New features are added as they become available. Please visit the site frequently for new information.";29.6185669, -95.5377215;29.6185669;-95.5377215
Noaa National Climate Data Center;United States;United States;Etats-Unis;http://ncdc.noaa.gov/cdo-web/webservices/v2;;38.8951, -77.0367;38.8951;-77.0367
International Steering Committee For Global Mapping;United Nations;United States;Etats-Unis;http://iscgm.org/gmd/;;40.749, 73.968;40.749;73.968
King County, Wa - Gis;United States;United States;Etats-Unis;http://kingcounty.gov/operations/gis.aspx;;47.47, -121.84;47.47;-121.84
Sitka, Ak - Gis Data;United States;United States;Etats-Unis;http://mainstreetmaps.com/ak/sitka;;57.0516, -135.3386;57.0516;-135.3386
Illinois State Geological Survey;United States;United States;Etats-Unis;http://isgs.uiuc.edu;;40.1105, -88.2284;40.1105;-88.2284
National Weather Service;United States;United States;Etats-Unis;http://nws.noaa.gov/gis/;;38.8951, -77.0367;38.8951;-77.0367
New Hampshire Open Data;United States;United States;Etats-Unis;http://nhopengov.org/;;43.20667, -71.53806;43.20667;-71.53806
Maryland Geological Survey;United States;United States;Etats-Unis;http://mgs.md.gov/;;38.97278, -76.50111;38.97278;-76.50111
Kansas Geological Survey;United States;United States;Etats-Unis;http://kgs.ku.edu;;38.9581, -95.2478;38.9581;-95.2478
Portland-vancouver Metropolitan Region Transportation Archive (portal);United States;United States;Etats-Unis;http://portal.its.pdx.edu;;45.52, -122.6819;45.52;-122.6819
National Public Radio - Accessible Playgrounds;United States;United States;Etats-Unis;http://playgroundsforeveryone.com/;;38.8951, -77.0367;38.8951;-77.0367
Open Science Data Cloud Public Data;United States;United States;Etats-Unis;http://opensciencedatacloud.org/publicdata/;;38.8833, -77.0167;38.8833;-77.0167
Open Flights Airflight Data;United States;United States;Etats-Unis;http://openflights.org/data.html;;38.8833, -77.0167;38.8833;-77.0167
Louisville, Ky Open Data;United States;United States;Etats-Unis;http://portal.louisvilleky.gov;;38.25, -85.7667;38.25;-85.7667
Openstreetmap Foundation;United States;United States;Etats-Unis;http://openstreetmap.org;;38.8833, -77.0167;38.8833;-77.0167
Nevada Open Data;United States;United States;Etats-Unis;http://open.nv.gov;;39.1641, -119.7663;39.1641;-119.7663
San Diego Apps Challenge Data;San Diego Apps Challenge;United States;Etats-Unis;http://sdappschallenge.com/details/data;A list of datasets made available by the City of San Diego and other partner organisations for the San Diego Apps Challenge in Feb 2012.;32.7153292, -117.1572551;32.7153292;-117.1572551
United Nations Multilingual Terminology Database;United Nations;United States;Etats-Unis;http://unterm.un.org/dgaacs/unterm.nsf/8fa942046ff7601c85256983007ca4d8/$searchform?searchview;;40.749, -73.968;40.749;-73.968
National Highway Traffic Safety Administration: Fatalities Analysis System (fars);United States;United States;Etats-Unis;http://www-fars.nhtsa.dot.gov/main/;;38.8951, -77.0367;38.8951;-77.0367
Unesco Atlas Of The World's Languages In Danger;United Nations;United States;Etats-Unis;http://unesco.org/culture/languages-atlas/index.php;;40.749, -73.968;40.749;-73.968
Utah Department Of Transportation Data Portal;United States;United States;Etats-Unis;http://udot.utah.gov/ugate;;38.2, -111.16667;38.2;-111.16667
Nebraska - Conservation And Survey Division;United States;United States;Etats-Unis;http://snr.unl.edu/csd/;;40.8175, -96.7014;40.8175;-96.7014
Social Security Agency - Babynames;United States;United States;Etats-Unis;http://ssa.gov/oact/babynames;;38.8951, -77.0367;38.8951;-77.0367
Open Data Albania;Shqiperiacom Shpk / Osi / Osfa;Albania;Albanie;http://open.data.al/;Albania Open Data Catalog;41.3275, 19.81861;41.3275;19.81861
Central Statistics Organization;Afghanistan;Afghanistan;Afghanistan;http://cso.gov.af;;34.5333, 69.1333;34.5333;69.1333
Guelph, Ontario;City Of Guelph;Canada;Canada;http://guelph.ca/services.cfm?itemid=78870&smocid=1550;"No license other than this disclaimer:

> The Corporation of the City of Guelph makes no guarantees, representations, or warranties respecting the data, expressed or implied, arising by law or otherwise, including but not limited to, effectiveness, completeness, accuracy, or fitness for a particular purpose.";43.550096829, -80.249670076;43.55009683;-80.24967008
Opendatabc Data Catalogue;Opendatabc;Canada;Canada;http://www.opendatabc.ca/?app=odcat2;OpenDataBC presents a crowd-sourced list of datasets made available by various levels of government within the province of British Columbia;53.999827295, -125.003201924;53.9998273;-125.0032019
Region Of Waterloo, On Open Data;Canada;Canada;Canada;http://regionofwaterloo.ca/en/regionalgovernment/opendatahome.asp;;43.4667, -80.5;43.4667;-80.5
London, On Open Data;Canada;Canada;Canada;http://london.ca/city-hall/open-data/pages/open-data-data-catalogue.aspx;;42.9837, -81.2497;42.9837;-81.2497
Niagara Region Of Ontario Open Data;Canada;Canada;Canada;http://niagararegion.ca/government/opendata;;43.05, -79.3;43.05;-79.3
West Perry Sound, On Geography Network;Canada;Canada;Canada;http://wpsgn.ca/website/seguin.html;;45.7, -79.83333;45.7;-79.83333
Kamloops, Bc - My Maps;Canada;Canada;Canada;http://kamloops.ca/downloads/maps/launch.htm;;50.6761, -120.3408;50.6761;-120.3408
Northwest Territories Geoscience;Canada;Canada;Canada;http://nwtgeoscience.ca/services/;;66.0, -119.0;66.0;-119.0
Saanich, Bc Open Data;Canada;Canada;Canada;http://www.saanich.ca/data;;48.484, -123.381;48.484;-123.381
Our Airports;Canada;Canada;Canada;http://ourairports.com/data;;45.4214, -75.6919;45.4214;-75.6919
Portal De Dados Abertos Do Senado Federal (brazil);Senado Federal (brazil);Brazil;Brésil;http://dadosabertos.senado.gov.br/;Open Data Portal for the Brazilian Federal Senate. Uses CKAN.;-10.0, -55.0;-10.0;-55.0
Department Of Econonic Planning And Development;Brunei Darussalam;Brunei Darussalam;Brunei;http://depd.gov.bn/statistic_data.html;;4.8903, 114.9422;4.8903;114.9422
Ministry Of Education;Botswana;Botswana;Botswana;http://gov.bw/en/ministries--authorities/ministries/ministry-of-education-moe/;;-24.6583, 25.9083;-24.6583;25.9083
African Development Bank Group Open Data;Burkina Faso;Burkina Faso;Burkina Faso;http://burkinafaso.opendataforafrica.org/;;12.3333, -1.6667;12.3333;-1.6667
"Instituto Nacional De Estad&atilde;&shy;stica De Bolivia";Bolivia, Plurinational State Of;Bolivia;Bolivie;http://ine.gov.bo;;-16.712, -64.666;-16.712;-64.666
Ministério Da Educação E Desporto;Cabo Verde;Cabo Verde;Cap-Vert;http://www.minedu.gov.cv/;;15.1111, -23.6167;15.1111;-23.6167
Instituto Nacional De Meteorologia;Brazil;Brazil;Brésil;http://inmet.gov.br/;;-15.7833, -47.8667;-15.7833;-47.8667
Central Statistics Office;Botswana;Botswana;Botswana;http://cso.gov.bw;;-24.6583, 25.9083;-24.6583;25.9083
National Statistical Institute;Bulgaria;Bulgaria;Bulgarie;http://nsi.bg;;42.75, 25.5;42.75;25.5
National Statistics Bureau;Bhutan;Bhutan;Bhoutan;http://nsb.gov.bt;;27.417, 90.435;27.417;90.435
Québec, Québec;Ville De Québec;Canada;Canada;http://donnees.ville.quebec.qc.ca/;You may send feedback via [email](Application.DonneesOuvertes@Ville.quebec.qc.ca) or [webform](http://donnees.ville.quebec.qc.ca/nousjoindre.aspx). Uses its [own license](http://donnees.ville.quebec.qc.ca/licence.aspx).;46.8122791164, -71.2145376205;46.81227912;-71.21453762
Qualicum Beach, Bc;Canada;Canada;Canada;http://data.civicinfo.ca/organization/qualicum-beach-town;;49.35, -124.4333;49.35;-124.4333
Brampton, On Open Data;Canada;Canada;Canada;http://brampton.ca/en/city-hall/opengov/;;43.6833, -79.7667;43.6833;-79.7667
Winnipeg Transit Api;Canada;Canada;Canada;http://api.winnipegtransit.com/home/api;;49.8994, -97.1392;49.8994;-97.1392
British Columbia Property Tax;Canada;Canada;Canada;http://evaluebc.bcassessment.ca/;;54.0, -125.0;54.0;-125.0
Whitehorse, Yk Open Data;Canada;Canada;Canada;http://data.whitehorse.ca/;;60.7167, -135.05;60.7167;-135.05
Calgary, Ab Open Data;Canada;Canada;Canada;http://data.calgary.ca;;51.05, -114.0667;51.05;-114.0667
Ottawa, On Open Data;Canada;Canada;Canada;http://data.ottawa.ca/;;45.4214, -75.6919;45.4214;-75.6919
Alberta Open Data;Canada;Canada;Canada;http://data.alberta.ca/;;55.0, -115.0;55.0;-115.0
Nunavat Geoscience;Canada;Canada;Canada;http://cngo.ca/;;73.0, -91.0;73.0;-91.0
Department Of Statistics;Bermuda;Bermuda;Bermudes;http://govsubportal.com/ministries/2012-02-10-14-05-02/cabinet-office/statistics/statistics-hq;;32.3, -64.7833;32.3;-64.7833
Place Names Committee For The Northern Territory;Australia;Australia;Australie;http://placenames.nt.gov.au;;-20.0, 133.0;-20.0;133.0
Zentralanstalt Für Meteorologie Und Geodynamik;Austria;Austria;Autriche;http://zamg.ac.at;;48.2, 16.35;48.2;16.35
Niederösterreich (lower Austria) Open Data;Austria;Austria;Autriche;http://data.noe.gv.at/;;48.3333, 15.75;48.3333;15.75
Bangladesh Meteorological Department;Bangladesh;Bangladesh;Bangladesh;http://bmd.gov.bd/;;23.7, 90.35;23.7;90.35
Bahrain Open Data;Bahrain;Bahrain;Bahreïn;http://bahrain.bh/wps/portal/data/;;26.0275, 50.55;26.0275;50.55
Barbados Statistical Service;Barbados;Barbados;Barbade;http://barstats.gov.bb;;13.1667, -59.55;13.1667;-59.55
Louis Galipeau & Andrew Simons;Bermuda;Bermuda;Bermudes;http://bermuda.io/;;32.3, -64.7833;32.3;-64.7833
Statistics Belize;Belize;Belize;Belize;http://statisticsbelize.org.bz;;17.0667, -88.7;17.0667;-88.7
Ghent Open Data;Belgium;Belgium;Belgique;http://data.gent.be;;51.05, 3.7333;51.05;3.7333
Township Of Langley, British Columbia;Township Of Langley;Canada;Canada;http://www.tol.ca/servicescontact/opendata/opendatacatalogue.aspx;You may send [feedback](http://www.tol.ca/ServicesContact/OpenData/OpenDataFeedback.aspx). Uses the PDDL license.;49.082969808, -122.585894007;49.08296981;-122.585894
Saanich, Bc;District Of Saanich;Canada;Canada;http://www.saanich.ca/data/catalogue/index.php;You may send feedback via [email](mailto:opendata@saanich.ca). Uses its [own license](http://www.saanich.ca/data/licence.html).;48.549638795, -123.369314466;48.5496388;-123.3693145
Surrey, British Columbia;City Of Surrey;Canada;Canada;http://www.surrey.ca/city-services/658.aspx;Uses the PDDL license.;49.1063541539, -122.825088501;49.10635415;-122.8250885
African Development Bank Group Open Data;Central African Republic;Central African Republic;République Centrafricaine;http://car.opendataforafrica.org/;;4.3667, 18.5833;4.3667;18.5833
Economics And Statistics Office;Cayman Islands;Cayman Islands;Iles Caïmans;http://eso.ky;;19.3333, -81.4;19.3333;-81.4
Dirección Meteorológica De Chile;Chile;Chile;Chili;http://meteochile.cl/;;-33.4333, -70.6667;-33.4333;-70.6667
New South Wales State (Australia) Open Data Catalog;New South Wales State;Australia;Australie;http://data.nsw.gov.au;New South Wales State (Australia) Open Data Catalog;-32.7411406, 142.8280032;-32.7411406;142.8280032
Queensland Government Data;Queensland Government;Australia;Australie;http://data.qld.gov.au;Open data from the State government of Queensland, Australia;-19.309379, 136.7461849;-19.309379;136.7461849
Statistics Division;Antigua And Barbuda;Antigua And Barbuda;Antigua-et-Barbuda;http://ab.gov.ag/article_details.php?id=4792&category=114;;17.1167, -61.85;17.1167;-61.85
City Of Gold Coast, Qld;Australia;Australia;Australie;http://data.gov.au/organization/city-of-gold-coast;;-28.0167, 153.4;-28.0167;153.4
Meteorological Services;Antigua And Barbuda;Antigua And Barbuda;Antigua-et-Barbuda;http://antiguamet.com/;;17.1167, -61.85;17.1167;-61.85
City Of Hobart, Tas;Australia;Australia;Australie;http://data.gov.au/organization/city-of-hobart;;-42.8806, 147.325;-42.8806;147.325
Australian National Placenames Survey;Australia;Australia;Australie;http://anps.org.au;;-32.1617, 147.0178;-32.1617;147.0178
Tasmania Spatial Data;Australia;Australia;Australie;http://dpipwe.tas.gov.au/sif;;-42.0, 147.0;-42.0;147.0
Anguilla Statistics Department;Anguilla;Anguilla;Anguilla;http://gov.ai/statistics;;18.2272, -63.049;18.2272;-63.049
Bureau Of Meteorology;Australia;Australia;Australie;http://bom.gov.au/;;-35.3075, 149.1244;-35.3075;149.1244
Cook Islands Meteorological Service;Cook Islands;Cook Islands;Iles Cook;http://cookislands.pacificweather.org/;;-21.2, -159.7667;-21.2;-159.7667
Research Institute Of Geodesy;Czech Republic;Czech Republic;République Tchèque;http://vugtk.cz;;49.75, 15.75;49.75;15.75
Population And Housing Census;Costa Rica;Costa Rica;Costa Rica;http://censos.ccp.ucr.ac.cr;;9.9333, -84.0833;9.9333;-84.0833
Servicio Nacional De Geología Y Minería;Chile;Chile;Chili;http://sernageomin.cl;;-33.4333, -70.6667;-33.4333;-70.6667
Instituto Geográfico Nacional;Costa Rica;Costa Rica;Costa Rica;http://snitcr.go.cr;;9.9333, -84.0833;9.9333;-84.0833
Census And Statistics Department;Hong Kong;China;Chine;http://censtatd.gov.hk;;22.267, 114.188;22.267;114.188
Meteorological And Geophysical Bureau;Macao;China;Chine;http://smg.gov.mo/;;22.1667, 113.55;22.1667;113.55
Nstituto De Meteorología;Cuba;Cuba;Cuba;http://insmet.cu/;;22.0, -79.5;22.0;-79.5
Isle Of Man - Agriculture Statistics;Isle Of Man;England;Angleterre;http://gov.im/about-the-government/departments/environment-food-and-agriculture/agriculture-directorate/agriculture-statistics/;;54.25, -4.5;54.25;-4.5
Egytian Government Open Data;Egypt;Egypt;Egypte;http://egypt.gov.eg/english/general/open_gov_data_initiative.aspx;;26.0, 30.0;26.0;30.0
Oficina Nacional De Meteorologiá;Dominican Republic;Dominican Republic;République Dominicaine;http://onamet.gov.do/;;19.0, -70.6667;19.0;-70.6667
Direction Nationale De La Statistique;Djibouti;Djibouti;Djibouti;http://ministere-finances.dj/statist.htm;;11.5883, 43.145;11.5883;43.145
Egyptian Geological Survey And Mining Authority (egsma);Egypt;Egypt;Egypte;http://egsma.gov.eg;;26.0, 30.0;26.0;30.0
Dominica Meteorological Services;Dominica;Dominica;Dominique;http://weather.gov.dm/;;15.4167, -61.3333;15.4167;-61.3333
Central Agency For Mobilization And Statistics;Egypt;Egypt;Egypte;http://capmas.gov.eg;;26.0, 30.0;26.0;30.0
Ministry Of Education;El Salvador;El Salvador;Salvador;http://mined.gob.sv;;13.6667, -89.1667;13.6667;-89.1667
Danish Meteorological Institute;Denmark;Denmark;Danemark;http://dmi.dk;;55.72, 12.57;55.72;12.57
Danmark Statistik;Denmark;Denmark;Danemark;http://dst.dk;;55.72, 12.57;55.72;12.57
Ministry Of Mines, Industry And Energy;Equatorial Guinea;Equatorial Guinea;Guinée Equatoriale;http://equatorialoil.com;;3.45, 8.55;3.45;8.55
African Development Bank Group Open Data;Eritrea;Eritrea;Erythrée;http://eritria.opendataforafrica.org/;;15.3333, 38.9167;15.3333;38.9167
Isle Of Man Census;Isle Of Man;England;Angleterre;http://gov.im/categories/home-and-neighbourhood/census/;;54.25, -4.5;54.25;-4.5
Statistics And Research Aland;Aland Islands;Finland;Finlande;http://asub.ax;;60.1, 19.93333;60.1;19.93333
Geological Survey Of Ethiopia;Ethiopia;Ethiopia;Ethiopie;http://gse.gov.et;;59.0, 26.0;59.0;26.0
Bureau Of Statistics;Fiji;Fiji;Fidji;http://statsfiji.gov.fj;;-18.0, 179.0;-18.0;179.0
Bouche-rhone / Provence Data Portal;Departement Bouche-rhone;France;France;http://data.visitprovence.com/;Launched April 2012. Tourism oriented data sets only.;43.5409158, 4.7416373;43.5409158;4.7416373
La Rochelle;City Of La Rochelle;France;France;http://www.opendata.larochelle.fr/;City data portal of La Rochelle. Launched 23 May 2012.;46.1666667, -1.15;46.1666667;-1.15
European Meteorological Society;Europe;Germany;Allemagne;http://emetsoc.org/resources/meteorological-and-hydrological-services;;52.5076682, 13.2850542;52.5076682;13.2850542
Le Mans Open Data;France;France;France;http://lemans.fr/page.do?t=2&uuid=16cb26c7-550ea533-5ae8381b-d7a64af8;;48.0077, 0.1984;48.0077;0.1984
International Aid Transparency Association;International Organizations;Ghana;Ghana;http://iatiregistry.org;;5.5913754, -0.2497698;5.5913754;-0.2497698
Weather And Climate - Deutscher Wetterdienst;Germany;Germany;Allemagne;http://dwd.de/;;52.5167, 13.3833;52.5167;13.3833
Direction Nationale De La Statistique;Guinea;Guinea;Guinée;http://stat-guinee.org;;9.5167, -13.7;9.5167;-13.7
Geological Society Of Greece;Greece;Greece;Grèce;http://geosociety.gr;;37.9617, 23.7533;37.9617;23.7533
Bremen Open Data;Germany;Germany;Allemagne;http://daten.bremen.de/;;53.0833, 8.8;53.0833;8.8
Ville De Brocas;France;France;France;http://opendata.brocas.fr;;44.0447, -0.5339;44.0447;-0.5339
Nantes Ouverture Des Données;Mairie De Nantes;France;France;http://data.nantes.fr;France's city of Nantes Area OpenData store;47.2172508194, -1.55336380005;47.21725082;-1.5533638
MENESR (Ministère de l'Education Nationale, de l'Enseignement Supérieur et de la Recherche);MENESR (Ministère de l'Education Nationale, de l'Enseignement Supérieur et de la Recherche);France;France;http://data.enseignementsup-recherche.gouv.fr/;;48.85341, 2.3488;48.85341;2.3488
RATP Open Data;RATP;France;France;http://data.ratp.fr/;Open Data mobility and transportation;48.85341, 2.3489;48.85341;2.3488
Boundaries Of Administrative Divisions In France;France;France;France;http://github.com/gregoiredavid/france-geojson;;47.0, 2.0;47.0;2.0
Ville De Saint-malo;France;France;France;http://data.gouv.fr/fr/organizations/ville-de-saint-malo/;;48.6481, -2.0075;48.6481;-2.0075
Finnish Meteorological Institute;Finland;Finland;Finlande;https://en.ilmatieteenlaitos.fi/open-data;;64.0, 26.0;64.0;26.0
Région Pays De La Loire;France;France;France;http://data.paysdelaloire.fr;;47.4667, -0.8333;47.4667;-0.8333
ERDF Open Data;ERDF;France;France;https://data.erdf.fr/page/accueil/;;48.85341, 2.3488;48.85341;2.3488
Administration Of Roads And Bridges - Grand Duchy Of Luxembourg;Luxembourg;Luxembourg;Luxembourg;http://pch.public.lu;;49.6, 6.1167;49.6;6.1167
African Development Bank Group Open Data;Madagascar;Madagascar;Madagascar;http://madagascar.opendataforafrica.org/;;-20.0, 47.0;-20.0;47.0
Malaysian Meteorological Department;Malaysia;Malaysia;Malaisie;http://met.gov.my/;;3.1333, 101.7;3.1333;101.7
Lithuanian Hydrometeorological Service;Lithuania;Lithuania;Lithuanie;http://meteo.lt/;;55.0, 24.0;55.0;24.0
Office National De Météorologie;Mauritania;Mauritania;Mauritanie;http://onm.mr/;;18.15, -15.9667;18.15;-15.9667
Servicio Meteorológico Nacional;Mexico;Mexico;Mexique;http://smn.cna.gob.mx;;19.0, -99.1333;19.0;-99.1333
Department Of Meteorology;Maldives;Maldives;Maldives;http://meteorology.gov.mv/;;3.2, 73.22;3.2;73.22
Mexico Open Data;Mexico;Mexico;Mexique;http://datos.codeandomexico.org/;;19.0, -99.1333;19.0;-99.1333
Dublinked Datastore;Nui Maynooth;Ireland, Republic of;Irlande;http://www.dublinked.ie/datastore/index.php;"Dublinked is a joint initiative of the local authorities of the Dublin Region and researchers from NUI Maynooth.

The project operates a data store, including a data catalog, focusing on Dublin City and the neighbouring counties of the Dublin Region.

Some of the data is open, other parts are member-only. There is a membership fee.";53.333056, -6.248889;53.333056;-6.248889
Statcentral.ie;Central Statistics Office Ireland;Ireland, Republic of;Irlande;http://www.statcentral.ie/;The StatCentral portal provides standard documentation on recurring official statistics and links to where they can be found. It covers data produced by the Irish Central Statistics Office (CSO), as well as other government departments, agencies and other state bodies.;53.0, -8.0;53.0;-8.0
City Of Rome Open Data;Roma Capitale;Italia;Italie;http://dati.comune.roma.it/;Open Data from the City of Rome, Italy.;41.9102415, 12.3959144;41.9102415;12.3959144
Iranian National Geographical Names Database;Iran, Islamic Republic Of;Iran;Iran;http://gndb.ncc.org.ir;;32.0, 53.0;32.0;53.0
Institut Haitien De Statistique Et D'informatique;Haiti;Haiti;Haïti;http://ihsi.ht;;18.5333, -72.3333;18.5333;-72.3333
Ireland Government Open Data;Ireland;Ireland, Republic of;Irlande;http://opendata.ie/;;53.0, -8.0;53.0;-8.0
Geological Survey Of Iran;Iran, Islamic Republic Of;Iran;Iran;http://gsi.ir;;32.0, 53.0;32.0;53.0
data.gov.ie;Ireland;Ireland, Republic of;Irlande;https://data.gov.ie/data;;53.0, -8.0;53.0;-8.0
India Meteorological Department;India;India;Inde;http://imd.gov.in/;;21.0, 78.0;21.0;78.0
India Government Open Data;India;India;Inde;http://data.gov.in/;;21.0, 78.0;21.0;78.0
Italian Chamber Of Deputies;Italian Chamber Of Deputies;Italy;Italie;http://dati.camera.it/it/;The history, activities, mechanisms of functioning of the Chamber of Deputies. Available free to reuse.;42.8333333, 12.8333333;42.8333333;12.8333333
Geodata Vicenza;Comune Di Vicenza;Italia;Italie;http://www.comune.vicenza.it/ente/settori/dipgenpers/sistinf/sit/daticartografici.php;geodata of Vicenza city;45.557294, 11.540898;45.557294;11.540898
Istat;Istat;Italy;Italie;http://dati.istat.it/;the datawarehouse of the italian statistics produced by Istat, a complete and consistent information assets;42.8333333, 12.8333333;42.8333333;12.8333333
Sardinia Geoportal;Regione Sardegna;Italia;Italie;http://www.sardegnageoportale.it/index.html;geodata from Sardegna;40.0, 9.0;40.0;9.0
Autonomous Province Of Bolzano Open Data;Italy;Italy;Italie;http://provincia.bz.it/informatica/cartografia/geoportale.asp;;46.5, 11.35;46.5;11.35
Comune Di Firenze (florence) Open Data;Italy;Italy;Italie;http://opendata.comune.fi.it;;43.7833, 11.25;43.7833;11.25
Enel Power Company Finacial/sustanability Data;Italy;Italy;Italie;http://data.enel.com;;41.9, 12.4833;41.9;12.4833
Ministry Of Health;Italy;Italy;Italie;http://dati.salute.gov.it/dati/homedataset.jsp;;41.9, 12.4833;41.9;12.4833
National Land Registry;Jamaica;Jamaica;Jamaïque;http://nla.gov.jm;;18.1824, -77.3218;18.1824;-77.3218
Italian Government Open Data;Italy;Italy;Italie;http://dati.gov.it;;41.9, 12.4833;41.9;12.4833
Korean Statistical Information Service;Korea, Republic Of;Korea, Republic of;Corée du Sud;http://kosis.kr;;37.55, 126.9667;37.55;126.9667
National Spatial Data Infrastructure;Korea, Republic Of;Korea, Republic of;Corée du Sud;http://nsdi.go.kr;;37.55, 126.9667;37.55;126.9667
South Korean Government Open Data;Korea, Republic Of;Korea, Republic of;Corée du Sud;http://data.go.kr;;37.55, 126.9667;37.55;126.9667
Korea Meteorological Administration;Korea, Republic Of;Korea, Republic of;Corée du Sud;http://kma.go.kr/;;37.55, 126.9667;37.55;126.9667
Liberia Institute Of Statistics And Geo-information Services;Liberia;Liberia;Liberia;http://lisgis.net;;6.3167, -10.8;6.3167;-10.8
African Development Bank Group Open Data;Liberia;Liberia;Liberia;http://liberia.opendataforafrica.org/;;6.3167, -10.8;6.3167;-10.8
Department Of Statistics;Jordan;Jordan;Jordanie;http://dos.gov.jo;;31.95, 35.9333;31.95;35.9333
Kenya Meteorological Department;Kenya;Kenya;Kenya;http://meteo.go.ke/;;-1.2667, 36.8;-1.2667;36.8
Bureau Of Statistics;Lesotho;Lesotho;Lesotho;http://bos.gov.ls;;-29.4667, 27.9333;-29.4667;27.9333
Latvia Open Data;Latvia;Latvia;Lettonie;http://opendata.lv/;;57.0, 25.0;57.0;25.0
Fsm Weather Station;Micronesia, Federated States Of;Micronesia;Micronésie;http://weather.noaa.gov/weather/fm_cc.html;;6.9167, 158.1833;6.9167;158.1833
African Development Bank Group Open Data;Mozambique;Mozambique;Mozambique;http://mozambique.opendataforafrica.org/;;-25.95, 32.5833;-25.95;32.5833
African Development Bank Group Open Data;Namibia;Namibia;Namibie;http://namibia.opendataforafrica.org/;;-22.57, 17.0861;-22.57;17.0861
Department Of Hydrology And Meteorology;Nepal;Nepal;Népal;http://dhm.gov.np/;;26.5333, 86.7333;26.5333;86.7333
Namibia Meteorological Service;Namibia;Namibia;Namibie;http://meteona.com/;;-22.57, 17.0861;-22.57;17.0861
Enschede Open Data Catalogue;Gemeente Enschede (municipality Of Enschede);Netherlands;Pays-Bas;http://opendata.enschede.nl;"The open data publishing platform for the city of Enschede. Comes with various data formats.

Built with the Ariadne CMS (php based), on top of PostgresSQL to deliver the data.";52.218333, 6.895833;52.218333;6.895833
Netherlands Public Data Catalogue;Bzk/wm/koop (government Ict Office);Netherlands;Pays-Bas;http://data.overheid.nl;Overheid.nl is the central access point to all information about / from government organisations of the Netherlands. Data.overheid.nl (launched 2011) is the central register for all government data sets.;52.5, 5.75;52.5;5.75
Medical Free/libre And Open Source Software;Medfloss.org;Netherlands;Pays-Bas;http://www.medfloss.org;Medfloss.org provides a comprehensive and structured overview of Free/Libre and Open Source Software (FLOSS) projects in the domains of medical informatics and health care.;51.0851432, 5.9684583;51.0851432;5.9684583
Dirección General De Estadística, Encuestas Y Censos;Paraguay;Paraguay;Paraguay;http://dgeec.gov.py;;-25.2667, -57.6667;-25.2667;-57.6667
Land Information New Zealand;New Zealand;New Zealand;Nouvelle-Zélande;http://linz.govt.nz/regulatory;;-42.0, 174.0;-42.0;174.0
Niue Meteorological Service;Niue;New Zealand;Nouvelle-Zélande;http://informet.net/niuemet;;-19.05, -169.9167;-19.05;-169.9167
Statistics New Zealand;New Zealand;New Zealand;Nouvelle-Zélande;http://stats.govt.nz;;-42.0, 174.0;-42.0;174.0
Alkmaar Open Data;Netherlands;Netherlands;Pays-Bas;http://alkmaar.nl/opendata;;52.6333, 4.75;52.6333;4.75
Ministry Of Energy & Mines;Peru;Peru;Pérou;http://ingemmet.gob.pe;;-12.0433, -77.0283;-12.0433;-77.0283
Datosperu.org;Civic Initiative;Peru;Pérou;http://www.datosperu.org/;;-10.0, -76.0;-10.0;-76.0
Open Government Data Saudi;Government Data Saudi;Saudi Arabia;Arabie Saoudite;http://www.saudi.gov.sa/wps/portal/!ut/p/c5/04_sb8k8xllm9msszpy8xbz9cp0os3itmgenye8tiwoduesla89qu69g11a_ywmtq6b8jjk8u68jud44ocqwmndd0mdqnbldrhtpdjygrrcbdubishdwap5-oci08psen7wraxmqd0dyenzo55gfm6pfkbsaghpr4zkzkk4iaom0c0u!/dl3/d3/l0lhskovd0rnquprquvnqsehl1lczncvyxi!/?;Saudi e-Government National Portal;25.0, 45.0;25.0;45.0
Instituto Nacional De Estadistica;Sao Tome And Principe;São Tomé and Príncipe;Sao Tomé-et-Principe;http://ine.st;;0.3361, 6.6814;0.3361;6.6814
Presidency Of Meteorology And Environment;Saudi Arabia;Saudi Arabia;Arabie saoudite;http://pme.gov.sa/;;24.0, 45.0;24.0;45.0
Moscow University - Geology Department;Russian Federation;Russia;Russie;http://geol.msu.ru;;55.7031, 37.5306;55.7031;37.5306
Institute Of Meteorology And Water Management;Poland;Poland;Pologne;http://imgw.pl/;;52.2167, 21.0333;52.2167;21.0333
National Bureau Of Statistics;Seychelles;Seychelles;Seychelles;http://nsb.gov.sc;;-4.6167, 55.45;-4.6167;55.45
National Meteorological Administration;Romania;Romania;Roumanie;http://inmh.ro/;;44.4167, 26.1;44.4167;26.1
Polish Official Statistics;Poland;Poland;Pologne;http://stat.gov.pl;;52.2167, 21.0333;52.2167;21.0333
National Statistical Institute;Portugal;Portugal;Portugal;http://ine.pt;;38.7, -9.1833;38.7;-9.1833
Samoa Meteorology Division;Samoa;Samoa;Samoa;http://mnre.gov.ws/;;-13.8333, -171.75;-13.8333;-171.75
Extremadura Reutiliza;Extremadura Reutiliza;Spain;Espagne;http://www.extremadurareutiliza.es/;Open Data initiative in Extremadura, Spain. It has been shut down by regional government;39.0, -6.0;39.0;-6.0
Open Data Portal Galicia;Xunta De Galicia;Spain;Espagne;http://abertos.xunta.es/portada;Dataportal of the regional government of Galicia, Spain. Launched Feb 2012;42.7550795451, -7.8662109375;42.75507955;-7.866210938
Gijón Public Data Catalogue;Ayuntamiento de Gijón;Spain;Espagne;http://datos.gijon.es;City of Gijón Public Data Catalogue;43.535731, -5.661519;43.535731;-5.661519
Cape Town Open Data Portal;South Africa;South Africa;Afrique du Sud;http://ctcs.capetown.gov.za/opendataportal/;;-33.9253, 18.4239;-33.9253;18.4239
African Development Bank Group Open Data;Somalia;Somalia;Somalie;http://somalia.opendataforafrica.org/;;2.0333, 45.35;2.0333;45.35
Solomon Islands Meteorological Service;Solomon Islands;Solomon Islands;Iles Salomon;http://met.gov.sb/;;-9.4667, 159.8167;-9.4667;159.8167
Statistics South Africa;South Africa;South Africa;Afrique du Sud;http://beta2.statssa.gov.za;;2.0333, 45.35;2.0333;45.35
Datos Abiertos Santander;Santander;Spain;Espagne;http://datos.santander.es/;;43.4614013, -3.8462423;43.4614013;-3.8462423
Meteorological Office;Slovenia;Slovenia;Slovénie;http://rzs-hm.si/;;46.05, 14.5;46.05;14.5
Gavà Obert;Spain;Spain;Espagne;http://gavaobert.gavaciutat.cat;;41.3072, 2.0039;41.3072;2.0039
Opengov Sweden Catalog;Peter Krantz;Sweden;Suède;http://www.opengov.se/data;Opengov.se is an initiative to highlight available public datasets in Sweden.;62.0, 15.0;62.0;15.0
Open Umea;Umeå Kommun;Sweden;Suède;http://www.openumea.se/;Open Data from the Municipality of Umea.;63.8284245148, 20.2597224712;63.82842451;20.25972247
African Development Bank Group Open Data;Tanzania, United Republic Of;Tanzania, United Republic Of;Tanzanie;http://tanzania.opendataforafrica.org/;;-6.307, 34.854;-6.307;34.854
Central Geological Survey, Moea;Taiwan, Province Of China;Taiwan, Republic Of China;Taïwan, République de Chine;http://moeacgs.gov.tw;;23.5, 121.0;23.5;121.0
African Development Bank Group Open Data;Swaziland;Swaziland;Swaziland;http://swaziland.opendataforafrica.org/;;-26.3167, 31.1333;-26.3167;31.1333
Open Government Partnership;Tanzania, United Republic Of;Tanzania, United Republic Of;Tanzanie;http://opengov.go.tz;;-6.307, 34.854;-6.307;34.854
Cern Open Data;European Union;Switzerland;Suisse;http://opendata.cern.ch;;46.2342, 6.0528;46.2342;6.0528
Meteorological Service;Suriname;Suriname;Suriname;http://meteosur.sr/;;5.8333, -55.1667;5.8333;-55.1667
Örebro Open Data;Sweden;Sweden;Suède;http://orebro.se/psidata;;59.2739, 15.2075;59.2739;15.2075
Statistiska Centralbyrn;Sweden;Sweden;Suède;http://scb;;59.35, 18.0667;59.35;18.0667
Thailand Opendata;Thai Prime Minister's Office;Thailand;Thaïlande;http://data.pm.go.th/;Catalog of the public data of Thailand;13.0108336, 96.9937247;13.0108336;96.9937247
African Development Bank Group Open Data;Togo;Togo;Togo;http://togo.opendataforafrica.org/;;6.1167, 1.2167;6.1167;1.2167
General Directorate Of Mineral And Exploration;Turkey;Turkey;Turquie;http://mta.gov.tr;;39.9167, 32.8333;39.9167;32.8333
Turkish State Meteorological Service;Turkey;Turkey;Turquie;http://meteor.gov.tr/;;39.9167, 32.8333;39.9167;32.8333
Tuvalu Statistics;Tuvalu;Tuvalu;Tuvalu;http://spc.int/prism/tuvalu/;;-8.5333, 179.2167;-8.5333;179.2167
Open Data Portal For Cook County Government;Local Authority;United States;Etats-Unis;http://data.cookcountyil.gov/;"* Courts
 * Economic Development
 * Finance and Accounting
 * Forest Preserves, Parks & Recreation
 * GIS / Maps
 * Healthcare
 * Public Safety 
 * Property & Taxation";31.1668567, -83.4498836;31.1668567;-83.4498836
Connecticut Department Of Energy & Environmental Protection - Gis Data And Maps;United States;United States;Etats-Unis;http://ct.gov/deep/cwp/view.asp?a=2701&q=323444&deepnav_gid=1636;;41.7625, -72.67417;41.7625;-72.67417
Summit County, Oh Code For America Brigade Open Data;United States;United States;Etats-Unis;http://communities.socrata.com/catalog/code-for-summit-county/;;41.13, -81.53;41.13;-81.53
Santa Cruz County, Ca - Gis;United States;United States;Etats-Unis;http://co.santa-cruz.ca.us/departments/geographicinformationsystems(gis).aspx;;37.03, -122.01;37.03;-122.01
Amador County, Ca Gis Division;United States;United States;Etats-Unis;http://co.amador.ca.us/departments/information-technology/gis;;38.44, -120.66;38.44;-120.66
Honolulu County, Hi Open Data;United States;United States;Etats-Unis;http://data.honolulu.gov/;;21.3975, -157.73944;21.3975;-157.73944
Cambridge, Ma Open Data;United States;United States;Etats-Unis;http://data.cambridgema.gov/;;42.3736, -71.1106;42.3736;-71.1106
Grand Rapids, Mi Open Data;United States;United States;Etats-Unis;http://data.grcity.us/;;42.9612, -85.6557;42.9612;-85.6557
Colorado Open Data;United States;United States;Etats-Unis;http://data.colorado.gov;;39.7391, -104.9849;39.7391;-104.9849
Open Reno;United States;United States;Etats-Unis;http://dashboard.reno.gov/;;39.5272, -119.8219;39.5272;-119.8219
Developmental Therapeutics Program (nci/nih);United States;United States;Etats-Unis;http://dtp.nci.nih.gov/docs/dtp_search.html;;38.8951, -77.0367;38.8951;-77.0367
Mississippi Deq Office Of Geology;United States;United States;Etats-Unis;http://deq.state.ms.us/mdeq.nsf/page/geology_home;;32.29889, -90.18472;32.29889;-90.18472
Edmonton, Alberta;City Of Edmonton;Canada;Canada;http://data.edmonton.ca/;Uses Socrata. You may consult a [list of datasets to be released](https://docs.google.com/spreadsheet/ccc?key=0ApBkb2qCoC6MdGx6M0RkN256Qnh4Qjh6MWE4QmdDUGc#gid=0) or [contact the office of the CIO](mailto:opendata@edmonton.ca). Adapted the [Vancouver license](http://www.edmonton.ca/city_government/initiatives_innovation/open-data-terms-of-use.aspx).;53.550135939, -113.468712219;53.55013594;-113.4687122
British Columbia Local Government Open Data Catalogue;Province of British Columbia;Canada;Canada;http://data.civicinfo.ca/;"Aggregates open data form the Province of British Columbia, the City of Nanaimo, the District of North Cowichan, and the District of
Saanich.
[Adapted the UK Open Government License](http://www.data.civicinfo.ca/terms.htm). Update 20/10/2015: not online anymore";53.999827295, -125.003201924;53.9998273;-125.0032019
Regional District Of North Cowichan, Bc;Canada;Canada;Canada;http://data.northcowichan.ca/;;48.8236, -123.7192;48.8236;-123.7192
Northwest Territories Centre For Geomatics;Canada;Canada;Canada;http://geomatics.gov.nt.ca/;;66.0, -119.0;66.0;-119.0
Chilliwack, Bc;Canada;Canada;Canada;http://chilliwack.com/main/page.cfm?id=2329;;49.1577, -121.9509;49.1577;-121.9509
Institut Geographique Du Burkina;Burkina Faso;Burkina Faso;Burkina Faso;http://igb.bf;;12.3333, -1.6667;12.3333;-1.6667
National Institute Of Statistics;Cambodia;Cambodia;Cambodge;http://nis.gov.kh;;11.55, 104.9167;11.55;104.9167
International Cancer Genome Consortium;Canada;Canada;Canada;http://dcc.icgc.org;;43.7, -79.4;43.7;-79.4
Opendata Burkina Faso;Burkina Faso;Burkina Faso;Burkina Faso;http://data.gov.bf;;12.3333, -1.6667;12.3333;-1.6667
Geomatics Yukon;Canada;Canada;Canada;http://geomaticsyukon.ca/;;64.0, -135.0;64.0;-135.0
Open Data Platform Of The Kingdom Of Bahrain;Kingdom of Bahrain;Bahrain;Bahreïn;http://www.bahrain.bh/wps/portal/data/;The open Data Platform is an important initiative for the Kingdom of Bahrain as it aims to implement a public data hub and a strategy for open data to enable transparency and promote eParticipation.;26.0, 50.5;26.0;50.5
Tirol Data Portal;Landesregierung Tirol;Austria;Autriche;http://data.tirol.gv.at;Launched April 2012, with 13 datasets on environment and tourism.;47.25, 11.3333333;47.25;11.3333333
Open Government Data Wien;City Of Vienna;Austria;Autriche;http://data.wien.gv.at/;Open government data for Vienna, Austria.;48.2084877602, 16.3720750809;48.20848776;16.37207508
African Development Bank Group Open Data;Benin;Benin;Bénin;http://benin.opendataforafrica.org/;;6.3176, 5.6145;6.3176;5.6145
Environment Agency Austria Open Data;Austria;Austria;Autriche;http://umweltbundesamt.at/opendata/;;48.2, 16.35;48.2;16.35
National Statistical Committee;Belarus;Belarus;Biélorussie;http://belstat.gov.by;;53.9167, 27.55;53.9167;27.55
Bahrain Meteorological Service;Bahrain;Bahrain;Bahreïn;http://bahrainweather.com/;;26.0275, 50.55;26.0275;50.55
Illawarra - Code The Gong;Australia;Australia;Australie;http://gong.io;;-34.43306, 150.88306;-34.43306;150.88306
National Mapping Organization;Bangladesh;Bangladesh;Bangladesh;http://sob.gov.bd;;23.7, 90.35;23.7;90.35
Ministry Of Education;Bahrain;Bahrain;Bahreïn;http://education.gov.bh;;26.0275, 50.55;26.0275;50.55
District Of North Vancouver, British Columbia;District Of North Vancouver;Canada;Canada;http://geoweb.dnv.org/data/;GEOweb, the District of North Vancouver’s Open Data portal. Uses its [own license](http://geoweb.dnv.org/ancillary/site-legal.html).;49.249657393, -123.119340403;49.24965739;-123.1193404
Regional District Of Okanagan-similkameen, Bc - Gis;Canada;Canada;Canada;http://rdos.bc.ca/departments/information-services/open-data-downloads/;;49.4167, -120.0;49.4167;-120.0
Ottawa, On Mobile Apps And Open Data;Canada;Canada;Canada;http://ottawa.ca/en/mobile-apps-and-open-data/open-data-ottawa;;45.4214, -75.6919;45.4214;-75.6919
Guelph, On Open Data;Canada;Canada;Canada;http://openguelph.wpengine.com/open-data-guelph/;;43.55, -80.25;43.55;-80.25
Kelowna, Bc Open Data;Canada;Canada;Canada;http://kelowna.ca/cm/page3936.aspx;;49.8801, -119.4436;49.8801;-119.4436
Ontario Open Data;Canada;Canada;Canada;http://ontario.ca/government/open-data-ontario;;50.0, -85.0;50.0;-85.0
Kitchener, On Open Data;Canada;Canada;Canada;http://kitchener.ca/opendata/;;43.45, -80.4833;43.45;-80.4833
Brandon, Mb Open Data;Canada;Canada;Canada;http://opengov.brandon.ca;;49.8333, -99.95;49.8333;-99.95
Newfoundland And Labrador;Canada;Canada;Canada;http://opendata.gov.nl.ca/;;53.0, -60.0;53.0;-60.0
Manitoba Land Initiative;Canada;Canada;Canada;http://mli2.gov.mb.ca/;;55.0, -97.0;55.0;-97.0
Mississauga, Ontario;City Of Mississauga;Canada;Canada;http://www.mississauga.ca/portal/residents/publicationsopendatacatalogue;You may send feedback via [email](mailto:eplanbuild.info@mississauga.ca). Adapted the [Vancouver license](http://www.mississauga.ca/file/COM/CityOfMississaugaTermsOfUse.pdf).;43.578898603, -79.6583032608;43.5788986;-79.65830326
Windsor, Ontario;City Of Windsor;Canada;Canada;http://www.citywindsor.ca/003713.asp;You may send [feedback](http://www.citywindsor.ca/003739.asp). Adapted the [Vancouver license](http://www.citywindsor.ca/DataCatalogue/PDF/OpenDataTermsofUse.pdf).;42.300083644, -83.016543483;42.30008364;-83.01654348
Winnipeg, Manitoba 2010 Election;Civic Initiative Winnipeg Citizen;Canada;Canada;http://winnipegelection.ca/open_data_2010;Citizen-created shapefiles and election results.;49.884398624, -97.147044715;49.88439862;-97.14704472
California;State Of California;Canada;Canada;http://www.data.ca.gov;Access raw State data files, databases, geographic data, and other data sources from the State of California;37.2502247, -119.7512643;37.2502247;-119.7512643
British Columbia Open Data;Canada;Canada;Canada;http://www.data.gov.bc.ca/;;54.0, -125.0;54.0;-125.0
Statistics Canada;Canada;Canada;Canada;http://statcan.gc.ca/;;45.4, -75.6667;45.4;-75.6667
Toronto, Ontario;City Of Toronto;Canada;Canada;http://www.toronto.ca/open;You may send [feedback](mailto:opendata@toronto.ca) and [request datasets](http://www.datato.org/app/). The current license is based upon the the UK Government's Open Government Licence for Public Sector Information and has been adapted with the permission of the UK National Archives. The previous license adapted the [Vancouver license](http://www1.toronto.ca/wps/portal/open_data/open_data_fact_sheet_details?vgnextoid=59986aa8cc819210VgnVCM10000067d60f89RCRD). See the [FAQ](http://www1.toronto.ca/wps/portal/open_data/open_data_fact_sheet_details?vgnextoid=cca1eaaa805c9210VgnVCM10000067d60f89RCRD).;43.700113788, -79.416304194;43.70011379;-79.41630419
Chinese Government Public Information Online;Chinese Government;China;Chine;http://govinfo.nlc.gov.cn/;Integration of the Chinese Government Public Information Service Platform;39.9390731, 116.1172755;39.9390731;116.1172755
Chile Library Of Congress Linked Data;Library Of Congress Of Chile;Chile;Chili;http://datos.bcn.cl/;Chile Library of Congress Linked Data;-30.0, -71.0;-30.0;-71.0
Colombia Government Open Data;Colombia;Colombia;Colombie;http://datosabiertoscolombia.cloudapp.net/frm/buscador/frmbuscador.aspx;;4.5833, -74.0667;4.5833;-74.0667
African Development Bank Group Open Data;Comoros;Comoros;Comores;http://comoros.opendataforafrica.org/;;-11.6833, 43.2667;-11.6833;43.2667
Instituto Geográfico Nacional Agustin Codazzi;Colombia;Colombia;Colombie;http://igac.gov.co;;4.5833, -74.0667;4.5833;-74.0667
Caribbean Meteorological Organization;Caribbean;Caribbean;Caraïbes;http://cmo.org.tt;;10.4439573, -61.7000267;10.4439573;-61.7000267
